stop_id,stop_name,stop_lat,stop_lon,zone_id,wheelchair_boarding
1,BTS บางหว้า;BTS Bang Wa,13.72076662,100.4578357,1,1
2,BTS วุฒากาศ;BTS Wutthakat,13.7130277,100.4690198,2,1
3,BTS ตลาดพลู;BTS Talat Phlu,13.71421714,100.4766927,3,1
4,BTS โพธิ์นิมิตร;BTS Pho Nimit,13.71922897,100.4859262,4,1
5,BTS วงเวียนใหญ่;BTS Wongwian Yai,13.7210877,100.4951403,5,1
6,BTS กรุงธนบุรี;BTS Krung Thon Buri,13.7209017,100.5026129,6,1
7,BTS สะพานตากสิน;BTS Saphan Taksin,13.71880193,100.5141446,7,1
8,BTS สุรศักดิ์;BTS Surasak,13.71919616,100.5214156,8,1
9,BTS ช่องนนทรี;BTS Chong Nonsi,13.72378634,100.5294145,9,1
10,BTS ศาลาแดง;BTS Sala Daeng,13.72852833,100.5343444,10,1
11,BTS ราชดำริ;BTS Ratchadamri,13.7394539,100.5394443,11,1
12,BTS สยาม;BTS Siam,13.74560808,100.5342019,12,1
13,BTS สนามกีฬาแห่งชาติ;BTS National Stadium,13.74649792,100.5290857,13,1
14,BTS สำโรง;BTS Samrong,13.64617528,100.5956435,14,1
15,BTS เเบริ่ง;BTS Bearing,13.66116386,100.6018391,15,1
16,BTS บางนา;BTS Bang Na,13.66811773,100.6046618,16,1
17,BTS อุดมสุข;BTS Udom Suk,13.67987118,100.609485,17,1
18,BTS ปุณณวิถี;BTS Punnawithi,13.68932551,100.6090339,18,1
19,BTS บางจาก;BTS Bang Chak,13.69678331,100.6053733,19,1
20,BTS อ่อนนุช;BTS On Nut,13.70560444,100.6010308,20,1
21,BTS พระโขนง;BTS Phra Khanong,13.71516419,100.5912722,21,1
22,BTS เอกมัย;BTS Ekkamai,13.71958047,100.5850719,22,1
23,BTS ทองหล่อ;BTS Thong Lo,13.72423968,100.5785337,23,1
24,BTS พร้อมพงษ์;BTS Phrom Phong,13.73041652,100.5697533,24,1
25,BTS อโศก;BTS Asok,13.73706037,100.5603259,25,1
26,BTS นานา;BTS Nana,13.74052651,100.5554426,26,1
27,BTS เพลินจิต;BTS Phloen Chit,13.74305012,100.5488059,27,1
28,BTS ชิดลม;BTS Chit Lom,13.74407158,100.5430608,28,1
30,BTS ราชเทวี;BTS Ratchathewi,13.75189911,100.5315413,30,1
32,BTS พญาไท;BTS Phaya Thai,13.7569107,100.5338157,32,1
33,BTS อนุสาวรีย์ชัยสมรภูมิ;BTS Victory Monument,13.76274965,100.5370929,33,1
34,BTS สนามเป้า;BTS Sanam Pao,13.77262459,100.542097,34,1
35,BTS อารีย์;BTS Ari,13.77972414,100.5446445,35,1
36,BTS สะพานควาย;BTS Saphan Khwai,13.79375602,100.5497248,36,1
37,BTS หมอชิต;BTS Mo Chit,13.80238688,100.5537286,37,1
92,ท่าเรือสาทร;Sathon (Taksin) Pier,13.71863135,100.512707,92,2
93,ท่าเรือโอเรียนเต็ล (ปิดปรับปรุง);Prietal Pier (Close),13.72332187,100.5135573,93,2
94,ท่าเรือสี่พระยา;Si Phraya Pier,13.72847903,100.5131787,94,2
95,ท่าเรือกรมเจ้าท่า;Marine Department Pier,13.73245804,100.5119319,95,2
96,ท่าเรือราชวงศ์;Rajchawongse Pier,13.73845005,100.5045789,96,2
97,ท่าเรือสะพานพุทธ;Memorial Bridge Pier,13.73986449,100.4981393,97,2
98,ท่าเรือปากคลองตลาด (ยอดพิมาน);YodpimanRiver Walk Pier,13.74060639,100.4957772,98,2
99,ท่าเรือราชินี;Rajinee Pier,13.74161079,100.4940294,99,2
101,ท่าเรือท่าช้าง;Tha Chang Pier,13.75232117,100.4882074,101,2
102,ท่าเรือพรานนก (วังหลัง);Wang Lang Pier,13.75619296,100.4869058,102,2
103,ท่าเรือรถไฟ;Thonburi Railway Pier,13.75921669,100.4876227,103,2
104,ท่าเรือพระปิ่นเกล้า;Phra Pin Klao Bridge Pier,13.76297471,100.4906941,104,2
105,ท่าเรือพระอาทิตย์;Phra Arthit Pier,13.76367486,100.4941072,105,2
106,ท่าเรือสะพานพระราม 8;Rama 8 Bridge Pier,13.7676256,100.4976417,106,2
107,ท่าเรือเทเวศน์;Thewej Pier,13.772011,100.5001197,107,2
108,ท่าเรือสะพานกรุงธน (ซังฮี้);Krung Thon Bridge (Sang Hi) Pier,13.78181833,100.5011963,108,2
109,ท่าพายัพ;Payap Pier,13.78750495,100.508168,109,2
110,ท่าเรือกรมชลประทานสามเสน;Irrigation Department Pier,13.78871265,100.5095916,110,2
111,ท่าเรือเขียวไข่กา;Kheaw Khai ka Pier,13.79102939,100.5117535,111,2
112,ท่าเรือเกียกกาย;Kaik Kai Pier,13.79873288,100.5171159,112,2
113,ท่าเรือวัดสร้อยทอง;Wat Soi Thong Pier,13.8121101,100.5175323,113,2
114,ท่าเรือสะพานพระราม 7;Rama 7 Bridge Pier,13.81290093,100.5133799,114,2
115,ท่าเรือพิบูลย์สงคราม 1;Pibulsongklam 1 Pier,13.81771458,100.5057085,115,2
116,ท่าเรือวัดเขมา (ปิดปรับปรุง);Wat Khema Pier (Close),13.82181091,100.5020684,116,2
117,ท่าเรือวัดตึก;Wat Tuek Pier,13.82449357,100.4989124,117,2
118,ท่าเรือวัดเขียน;Wat Kien Pier,13.82818381,100.4968417,118,2
119,ท่าเรือสะพานพระราม 5;Rama 5 Bridge Pier,13.8322741,100.493892,119,2
120,ท่านนทบุรี;Nonthaburi Pier,13.8421414,100.4908872,120,2
121,ท่าเรือวัดวรจรรยาวาส;Wat Worachanyawas Pier,13.70938748,100.5068283,121,2
122,ท่าเรือวัดราชสิงขร;Wat Rajchasingkorn Pier,13.7065289,100.5038953,122,2
123,ท่าเรือกระทรวงพาณิชย์;Ministry of Commerce Pier,13.88461583,100.4864023,123,2
124,ท่าเรือวัดกลางเกร็ด;Wat Klangkret Pier,13.90461341,100.4915632,124,2
125,ท่าเรือปากเกร็ด;Pakkret Pier,13.9154546,100.4947788,125,2
126,ท่าเรือสาทร (ข้ามฟาก);Sathon Pier (Ferry),13.71931795,100.5129021,126,2
127,ท่าเรือสี่พระยา (ข้ามฟาก);Si Phraya Pier (Ferry),13.72925712,100.5129471,127,2
128,ท่าเรืออัษฎางค์ (ปากคลองตลาด) (ข้ามฟาก);Asdand Pier (Ferry),13.74139031,100.494305,128,2
130,ท่าเรือนนทบุรี (ข้ามฟาก);Nonthaburi Pier (Ferry),13.84213749,100.4909013,130,2
131,ท่าเรือเทศบาลบางศรีเมือง (ข้ามฟาก);Bang Sri Mueang Municipality Pier (Ferry),13.84192231,100.4892424,131,2
132,ท่าเรือวัดอาวุธวิสิตาราม (ท่าวัดอาวุธฯ) (ข้ามฟาก);Wat Awutvikasitara Pier (Ferry),13.78947785,100.5069342,132,2
133,ท่าเรือพายัพ (ข้ามฟาก);Payap Pier (Ferry),13.78747174,100.5082197,133,2
134,ท่าเรือวัดบวรมงคล (ข้ามฟาก);Wat buanmongkhon Pier (Ferry),13.77424062,100.4981064,134,2
135,ท่าเรือวัดคฤหบดี (ข้ามฟาก);Wat Kharue Habodi Pier (Ferry),13.77196345,100.4970613,135,2
136,ท่าเรือวัดระฆัง (ข้ามฟาก);Wat Rakang Pier (Ferry),13.75250452,100.4865974,136,2
137,ท่าเรือมหาราช (ข้ามฟาก);Tha Maharaj Pier (Ferry),13.75520198,100.4885913,137,2
138,ท่าเรือสะพานตากสิน (ข้ามฟาก);Taksin Bridge Pier (Ferry),13.72012766,100.5112117,138,2
139,ท่าเรือวัดสุวรรณ (ข้ามฟาก);Wat Suwan Pier (Ferry),13.7240863,100.5118722,139,2
140,ท่าเรือรถไฟคลองสาน (ข้ามฟาก);Klong San Pier (Ferry),13.72905551,100.5115714,140,2
141,ท่าเรือสวัสดี (ข้ามฟาก);Sawaddee Pier (Ferry),13.7362038,100.5092624,141,2
142,ท่าเรือวัดทองธรรมชาติ (ข้ามฟาก);Wat Thongthummachat Pier (Ferry),13.73516388,100.5082696,142,2
143,ท่าราชวงศ์ (ข้ามฟาก);Ratchawong Pier (Ferry),13.73846699,100.5045658,143,2
144,ท่าเรือรถไฟ (ข้ามฟาก);Thonburi Railway Station Pier (Ferry),13.75923167,100.4875378,144,2
145,ท่าเรือวัดกัลยาณมิตร (ข้ามฟาก);Wat Kalayanamit Pier (Ferry),13.74054972,100.492635,145,2
146,ท่าเรือท่าเตียน (ข้ามฟาก);Tha Tien Pier (Ferry),13.74615072,100.4900866,146,2
148,ท่าเรือคลองเตย (ข้ามฟาก);Klongtoey Pier (Ferry),13.70723997,100.5636485,148,2
149,ท่าเรือทั่วไป (ข้ามฟาก);thua Pai Pier (Ferry),13.70441413,100.5628718,149,2
150,ท่าเรือพระราม 3 (ข้ามฟาก);Rama 3 Pier (Ferry),13.67032567,100.5384244,150,2
151,ท่าเรือคลองลัดโพธิ์ (ข้ามฟาก);Klong Latpho Pier (Ferry),13.66797386,100.5387127,151,2
152,ท่าเรือวัดบางพึ่ง (ข้ามฟาก);Wat Bang Phueng Pier (Ferry),13.67511358,100.5235582,152,2
153,ท่าเรือคลองลัดหลวง (ข้ามฟาก);Klong Latluang Pier (Ferry),13.67000119,100.5277931,153,2
154,ท่าเรือวัชรีวงศ์ (ข้ามฟาก);Watchareewong Pier (Ferry),13.91644002,100.4935751,154,2
155,ท่าเรือวัดเตย (ข้ามฟาก);Wat Toey Pier (Ferry),13.91784752,100.49516,155,2
156,ท่าเรือวัดอรุณราชวราราม (ท่าวัดอรุณฯ) (ข้ามฟาก);Wat Arun Ratchawararam Pier (Ferry),13.74499425,100.4891622,156,2
157,ท่าเรือดินแดง (ข้ามฟาก);Dindang Pier (Ferry),13.73693561,100.5039181,157,2
158,ท่าโอเรียนเต็ล (ข้ามฟาก);Oriental Pier (Ferry),13.72333295,100.5135683,158,2
159,ท่าเรือวัดบางนานอก (ข้ามฟาก);Wat Bangnanok Pier (Ferry),13.67656424,100.5874166,159,2
160,ท่าเรือวัดบางน้ำผึ้งนอก (ข้ามฟาก);Wat Bangnamphuengnok Pier (Ferry),13.6824733,100.5872285,160,2
161,ท่าเรือเภตรา (ข้ามฟาก);PheTra Pier (Ferry),13.65711205,100.5373535,161,2
162,ท่าเรือพระประแดง (ข้ามฟาก);Phrapadang Pier (Ferry),13.65847877,100.5350032,162,2
163,ท่าเรือท่าช้าง (ข้ามฟาก);Tha Chang Pier (Ferry),13.75240421,100.4882278,163,2
164,ท่าเรือเทเวศร์ (ข้ามฟาก);Thewet Pier (Ferry),13.77211227,100.5002733,164,2
165,ท่าเรือพระจันทร์ (ข้ามฟาก);Tha Phra Chan Pier (Ferry),13.75659352,100.4887633,165,2
166,ท่าเรือพรานนก (วังหลัง) (ข้ามฟาก);Phannok (Wang Lang) Pier (Ferry),13.75595262,100.4868626,166,2
167,ท่าเรือสาธุประดิษฐ์ (ข้ามฟาก);Sathupradit Pier (Ferry),13.67697373,100.5272094,167,2
168,ท่าปากเกร็ด (ข้ามฟาก);Pakkret Pier (Ferry),13.91546339,100.4947795,168,2
169,ท่าเรือวิบูลย์ศรี (ข้ามฟาก);Wiboon Si Pier (Ferry),13.59491353,100.5955091,169,2
170,ท่าเรือพระสมุทรเจดีย์ (ข้ามฟาก);Phra Samut Chedi Pier (Ferry),13.59713755,100.5867292,170,2
171,ท่าเรือผ่านฟ้าลีลาศ;Panfa Leelard Pier,13.75552921,100.5063291,171,2
172,ท่าเรือตลาดโบ๊เบ๊;Bobae Market Pier,13.75343478,100.5159417,172,2
173,ท่าเรือสะพานเจริญผล;Charoen Phon Bridge Pier,13.74981112,100.5243158,173,2
174,ท่าเรือสะพานหัวช้าง;Saphan Hua Chang Pier,13.74919555,100.5308909,174,2
175,ท่าเรือประตูน้ำ;Pratunam Pier,13.74923086,100.5415072,175,2
176,ท่าเรือชิดลม;Chidlom Pier,13.74869323,100.5445559,176,2
177,ท่าเรือสะพานวิทยุ;Witthayu Bridge Pier,13.74828257,100.5482704,177,2
178,ท่าเรือนานาเหนือ;Nana Nuea Pier,13.74825007,100.5539952,178,2
179,ท่าเรือนานาชาติ;Nana Chard Pier,13.74836248,100.5591482,179,2
180,ท่าเรืออโศก;Asok Pier,13.74787615,100.5629076,180,2
181,ท่าเรือมศว.ประสานมิตร;Prasan Mit Pier,13.74731189,100.565819,181,2
182,ท่าเรืออิตัลไทย;Ital-Thai Tower Pier,13.74593252,100.573476,182,2
183,ท่าเรือสุเหร่าบ้านดอน;Baan Don Mosque Pier,13.74415652,100.5814449,183,2
184,ท่าเรือทองหล่อ;Thong Lo Pier,13.74319326,100.5858405,184,2
185,ท่าเรือชาญอิสระ;Charn Issara Pier,13.74271528,100.5884157,185,2
186,ท่าเรือร.ร.วิจิตร;Vijit School Pier,13.74152566,100.5940791,186,2
187,ท่าเรือสะพานคลองตัน;Klong Tan Pier,13.7419392,100.5982991,187,2
188,ท่าเรือราม 1;Ram 1 Pier,13.74332744,100.5989052,188,2
189,ท่าเรือเดอะมอลล์ 3;The Mall 3 Pier,13.75434961,100.6077597,189,2
190,ท่าเรือรามคำแหง 29;Ramkhamhaeng 29 Pier,13.75808556,100.6118684,190,2
191,ท่าเรือวัดเทพลีลา;Wat Thepleela Pier,13.75996064,100.6137652,191,2
192,ท่าเรือม.รามคำแหง;Ramkhamhaeng University Pier,13.76155892,100.6183205,192,2
193,ท่าเรือสะพานมิตรมหาดไทย;Saphan Mit Mahat Thai Pier,13.76217104,100.6237186,193,2
194,ท่าเรือวัดกลาง;Wat Klang Pier Pier,13.76343974,100.6335161,194,2
195,ท่าเรือเดอะมอลล์บางกะปิ;The Mall Bang Kapi Pier,13.76462146,100.64344,195,2
196,ท่าเรือบางกะปิ;Bang Kapi Pier,13.76498839,100.6473928,196,2
197,ท่าเรือวัดศรีบุญเรือง;Wat Sriboonreung Pier,13.76727086,100.6515477,197,2
199,BRT ราชพฤกษ์;BRT Ratchapruek,13.71590213,100.4789265,199,1
200,BRT สะพานพระราม3;BRT Rama III Bridge,13.69395518,100.5000692,200,1
201,BRT เจริญราฎร์;BRT Charoenrat,13.69027999,100.5042134,201,1
202,BRT สะพานพระราม9;BRT Rama IX Bridge,13.68823747,100.5154343,202,1
203,BRT วัดดอกไม้;BRT Wat Dokmai,13.68238735,100.5254255,203,1
204,BRT วัดปริวาส;BRT Wat Pariwat,13.67475682,100.5342004,204,1
205,BRT วัดด่าน;BRT Wat Dan,13.67422773,100.5431338,205,1
206,BRT นราราม3;BRT Nararam 3,13.6964483,100.5452801,206,1
207,BRT ถนนจันทน์;BRT Thanon Chan,13.70479086,100.5389431,207,1
208,BRT เทคนิคกรุงเทพ;BRT Technic Krungthep,13.71245288,100.5350134,208,1
209,BRT อาคารสงเคราะห์;BRT Arkan Songkhro,13.71731263,100.5325787,209,1
210,BRT สาทร;BRT Sathorn,13.72137582,100.5305117,210,1
212,SRT กรุงเทพ;SRT Bangkok,13.7392,100.51689,212,2
213,SRT ตลาดใหม่ดอนเมือง;SRT Talatmai Don Muang,13.91468,100.59808,213,2
214,SRT ดอนเมือง;SRT Don Muang,13.91971,100.60102,214,2
215,SRT หลักหก;SRT Lak Hok,13.96584,100.60538,215,2
216,SRT คลองหนึ่ง;SRT Khlong Nhung,14.02334,100.59818,216,2
217,SRT คลองรังสิต;SRT Khlong Rangsit,13.98619,100.60256,217,2
218,SRT การเคหะ กม.19;SRT Khan Keha Khomo Sipkao,13.89837,100.58902,218,2
219,SRT ม.ธรรมศาสตร์;SRT Thammasat University,14.07947,100.58852,219,2
220,SRT โรงพยาบาลรามาธิบดี;SRT RAMATHIBODI HOSPITAL,13.76658,100.52461,220,2
221,SRT แกรนด์ คาแนล;SRT Grand Canal,13.94142,100.60827,221,2
222,SRT รังสิต;SRT Rangsit,13.99064,100.60208,222,2
223,SRT เชียงราก;SRT Chiang Rak,14.05533,100.59265,223,2
224,SRT นวนคร;SRT Nava Nakhon,14.11446,100.58442,224,2
225,SRT ยมราช;SRT Yommaraj,13.75819,100.52126,225,2
226,SRT มักกะสัน;SRT Makkasan,13.75373,100.5474,226,2
228,SRT สามเสน;SRT Sam Sen,13.77944,100.52982,228,2
229,SRT คลองตัน;SRT Khlong Tan,13.74417,100.58982,229,2
230,SRT หัวหมาก;SRT Hua Mak,13.73817,100.64022,230,2
231,SRT บ้านทับช้าง;SRT Ban Thap Chang,13.73288,100.6909,231,2
232,SRT ซอยวัดลานบุญ;SRT Soi Wat Lan Boon,13.72969,100.71825,232,2
233,SRT ลาดกระบัง;SRT Lat Krabang,13.72759,100.74858,233,2
234,SRT หัวตะเข้;SRT Hua Takhe,13.72835,100.78283,234,2
236,SRT คลองหลวงแพ่ง;SRT Khlong Luang Phaeng,13.72018,100.86316,236,2
237,SRT อุรุพงษ์;SRT Urupong,13.75807,100.52825,237,2
238,SRT พญาไท;SRT Phayathai,13.75702,100.53339,238,2
240,SRT อโศก;SRT Asoke,13.75037,100.56254,240,2
241,SRT สุขุมวิท 71;SRT Sukhumvit 71,13.74278,100.60067,241,2
242,SRT พระจอมเกล้า;SRT Pra Chom Klao,13.72826,100.77548,242,2
243,SRT ธนบุรี;SRT Thon Buri,13.76057,100.47888,243,2
244,SRT บางระมาด;SRT Bang Ramat,13.77844,100.45306,244,2
245,SRT ชุมทางตลิ่งชัน;SRT Taling Chan Junction,13.7893,100.44014,245,2
246,SRT บางบำหรุ;SRT Bang Bamru,13.79211,100.47733,246,2
247,SRT บ้านฉิมพลี;SRT Banchimphli,13.79925,100.42059,247,2
248,SRT ศาลาธรรมสพน์;SRT Sala Thammasop,13.801,100.37081,248,2
249,SRT ศาลายา;SRT Sala Ya,13.8026,100.32448,249,2
250,SRT วัดสุวรรณ;SRT Wat Suwan,13.80576,100.28375,250,2
251,SRT คลองมหาสวัสดิ์;SRT Khlong Maha Sawat,13.80892,100.2508,251,2
252,SRT วัดงิ้วราย;SRT Wat Ngiu Rai,13.80808,100.21623,252,2
253,SRT นครชัยศรี;SRT Nakhon Chaisi,13.80629,100.17615,253,2
254,SRT ท่าแฉลบ;SRT Tha Chalaep,13.81232,100.13175,254,2
255,SRT ต้นสำโรง;SRT Ton Samrong,13.82556,100.09131,255,2
256,SRT นครปฐม;SRT Nakhon Pathom,13.82441,100.05938,256,2
257,SRT พระราชวังสนามจันทร์;SRT Sanam Chandra Palace,13.82381,100.04092,257,2
258,SRT โพรงมะเดื่อ;SRT Phrong Madua,13.82235,99.99247,258,2
264,SRT ประดิพัทธ์;SRT Pra Dipat,13.79218,100.53501,264,2
266,SRT กรุงเทพอภิวัฒน์;SRT Bangkok (Krung Thep Aphiwat),13.80559,100.54229,266,2
267,SRT นิคมรถไฟ กม.11;SRT Nikhom Rotphai Khomo Sip-et,13.82331,100.54792,267,2
268,SRT จรัญสนิทวงศ์;SRT Jaran Sanitwong,13.7631,100.47338,268,2
269,SRT พุทธมณฑล สาย 2;SRT Phuttamonthon Sai 2,13.80013,100.39505,269,2
270,SRT วงเวียนใหญ่;SRT Wongwian Yai,13.72461,100.49194,270,2
271,SRT ตลาดพลู;SRT Talat Phlu,13.72082,100.478,271,2
272,SRT คลองต้นไทร;SRT Khlong Ton Sai,13.70706,100.47003,272,2
273,SRT จอมทอง;SRT Chom Thong,13.70174,100.46486,273,2
274,SRT วัดไทร;SRT Wat Sai,13.69107,100.45729,274,2
275,SRT วัดสิงห์;SRT Wat Sing,13.68327,100.44778,275,2
276,SRT บางบอน;SRT Bang Bon,13.66643,100.42885,276,2
277,SRT การเคหะ;SRT Khan Keha,13.66344,100.42553,277,2
278,SRT รางสะแก;SRT Rang Sakae,13.64952,100.40988,278,2
279,SRT รางโพธิ์;SRT Rang Pho,13.63903,100.39801,279,2
280,SRT สามแยก;SRT Sam Yaek,13.63032,100.38817,280,2
281,SRT พรมแดน;SRT Phrom Daen,13.62097,100.37807,281,2
282,SRT บางน้ำจืด;SRT Bang Nam Jued,13.60512,100.36024,282,2
283,SRT คอกควาย;SRT Khok Khwai,13.58691,100.33986,283,2
284,SRT บ้านขอม;SRT Ban Khom,13.5635,100.31401,284,2
285,SRT มหาชัย;SRT Maha Chai,13.54627,100.27669,285,2
286,SRT บ้านแหลม;SRT Ban Laem,13.54189,100.26991,286,2
287,SRT ท่าฉลอม;SRT Tha Chalom,13.53445,100.26695,287,2
288,SRT บ้านชีผ้าขาว;SRT Ban Chi Phakhao,13.52486,100.24091,288,2
289,SRT บางสีคต;SRT Bang Si Khot,13.51571,100.21412,289,2
290,SRT บางกระเจ้า;SRT Bang Krachao,13.50876,100.19737,290,2
291,SRT บ้านบ่อ;SRT Ban Bo,13.5017,100.18083,291,2
292,SRT บางโทรัด;SRT Bang Thorat,13.49467,100.16113,292,2
293,SRT บ้านกาหลง;SRT Ban Ka Long,13.4874,100.13752,293,2
294,SRT บ้านนาขวาง;SRT Ban Na Khwang,13.48582,100.1209,294,2
295,SRT บ้านนาโคก;SRT Ban Na Khok,13.47726,100.10327,295,2
296,SRT เขตเมือง;SRT Ked Muang,13.45684,100.07458,296,2
297,SRT คลองจาก;SRT Khlong Chak,13.55168,100.28932,297,2
298,SRT ทุ่งสีทอง;SRT Thung Si Thong,13.61264,100.36873,298,2
300,SRT บางเขน;SRT Bang Khen,13.84727,100.56063,300,2
301,SRT ทุ่งสองห้อง;SRT Thung Song Hong,13.86013,100.5676,301,2
302,SRT หลักสี่;SRT Lak Si,13.8841,100.58078,302,2
303,ท่าเรือประตูน้ำภาษีเจริญ;Phasi Charoen Dam Pier,13.72211803,100.4681527,303,2
304,ท่าเรืออู่รถเมล์สาย 9;Bus Line 9 Pier,13.7213491,100.4662511,304,2
305,ท่าเรือสะพานประชารัฐ;Phracharat Bridge Pier,13.72043398,100.4632561,305,2
306,ท่าเรือสะพานตากสิน - เพชรเกษม;Taksin-Phet Kasem Pier,13.71866881,100.4583755,306,2
307,ท่าเรือวัดอ่างแแก้ว;Wat Angkeaw Pier,13.71722858,100.4545504,307,2
308,ท่าเรือเพชรเกษม 31;Phet Kasem 31 Pier,13.71399356,100.4450141,308,2
309,ท่าเรือวัดรางบัว;Wat Rangbua Pier,13.71166162,100.4387198,309,2
310,ท่าเรือเพชรเกษม 35;Phet Kasem 35 Pier,13.70956634,100.4324856,310,2
311,ท่าเรือเพชรเกษม 37;Phet Kasem 37 Pier,13.70912766,100.4311873,311,2
312,ท่าเรือเพชรเกษม 39;Phet Kasem 39 Pier,13.70840966,100.4291753,312,2
313,ท่าเรือวัดนิมมานรดี;Wat Nimmanoradee Pier,13.70764386,100.4270264,313,2
314,ท่าเรือเกษตร - บางแค;Kaset-Bangkae Pier,13.70562422,100.4211954,314,2
315,ท่าเรือสะพานกาญจนาภิเษก;Kanchanaphisek Bridge Pier,13.70034455,100.4063386,315,2
316,ท่าเรือวัดม่วง;Wat Muang Pier,13.69542975,100.3925604,316,2
317,ท่าเรือเพชรเกษม 69;Phet Kasem 69 Pier,13.69175942,100.3814286,317,2
318,SRT ลาดใหญ่;SRT Lad Yai,13.43584,100.04498,318,2
319,SRT บางกระบูน;SRT Bang Krabun,13.42292,100.01994,319,2
320,SRT แม่กลอง;SRT Mae Klong,13.40749,99.99849,320,2
321,ARL พญาไท;ARL Phaya Thai,13.75664122,100.5349809,321,1
322,ARL ลาดกระบัง;ARL Lat Krabang,13.7276349,100.7484244,322,1
323,ARL บ้านทับช้าง;ARL Ban Thap Chang,13.73279942,100.6907507,323,1
324,ARL มักกะสัน;ARL Makkasan,13.75083316,100.5612252,324,1
325,ARL หัวหมาก;ARL Hua Mak,13.73798899,100.6451731,325,1
326,ARL ท่าอากาศยานสุวรรณภูมิ;ARL Suvarnabhumi Airport,13.6941335,100.751265,326,1
327,ARL ราชปรารภ;ARL Ratchaprarop,13.75488378,100.5421791,327,1
328,ARL รามคำแหง;ARL Ramkhamhaeng,13.74294206,100.600056,328,1
329,MRT สีลม;MRT Si Lom,13.72936409,100.5373522,329,1
330,MRT บางพลู;MRT Bang Phlu,13.87584835,100.4337842,330,1
331,MRT เตาปูน;MRT Tao Poon,13.80612995,100.5307978,331,1
332,MRT ไทรม้า;MRT Sai Ma,13.87048139,100.4666823,332,1
333,MRT คลองเตย;MRT Khlong Toei,13.72229155,100.5539853,333,1
334,MRT บางซื่อ;MRT BANG SUE,13.80298063,100.539137,334,1
335,MRT บางซ่อน;MRT Bang Son,13.82005423,100.5324266,335,1
336,MRT ลุมพินี;MRT Lumphini,13.72541093,100.5464998,336,1
337,MRT สามย่าน;MRT Sam Yan,13.73249775,100.5294265,337,1
338,MRT บางกระสอ;MRT Bang Krasor,13.86165031,100.5046585,338,1
339,MRT พหลโยธิน;MRT Phahon Yothin,13.81315174,100.5609024,339,1
340,MRT ลาดพร้าว;MRT Lat Phrao,13.80645406,100.5729123,340,1
341,MRT สุขุมวิท;MRT Sukhumvit,13.73766759,100.5614691,341,1
342,MRT สุทธิสาร;MRT Sutthisan,13.79007139,100.5741276,342,1
343,MRT หัวลำโพง;MRT Hua Lamphong,13.73762141,100.5171116,343,1
344,MRT ห้วยขวาง;MRT Huai Khwang,13.77867243,100.5735793,344,1
345,MRT เพชรบุรี;MRT Phetchaburi,13.74933041,100.5634894,345,1
346,MRT กำแพงเพชร;MRT Kamphaeng Phet,13.79777643,100.5481712,346,1
347,MRT วงศ์สว่าง;MRT Wong Sawang,13.82981627,100.5264991,347,1
348,MRT คลองบางไผ่;MRT Khlong Bang Phai,13.89249838,100.4082652,348,1
349,MRT บางรักใหญ่;MRT Bang Rak Yai,13.87667939,100.4449167,349,1
350,MRT พระรามเก้า;MRT Phra Ram 9,13.75734621,100.5652996,350,1
351,MRT รัชดาภิเษก;MRT Ratchadaphisek,13.79885243,100.5746009,351,1
352,MRT สวนจตุจักร;MRT Chatuchak Park,13.80276578,100.5537498,352,1
353,MRT ตลาดบางใหญ่;MRT Talad Bang Yai,13.88115256,100.4092793,353,1
354,MRT แยกติวานนท์;MRT Yeak Tiwanon,13.83954338,100.5149725,354,1
355,MRT สามแยกบางใหญ่;MRT Sam Yeak Bang Yai,13.87473227,100.419364,355,1
356,MRT กระทรวงสาธารณสุข;MRT Ministry of Public Health,13.84848209,100.514724,356,1
357,MRT บางรักน้อยท่าอิฐ;MRT Bang Rak Noi Tha It,13.87489486,100.4559917,357,1
358,MRT สะพานพระนั่งเกล้า;MRT Phra Nang Klao Bridge,13.87031881,100.4802391,358,1
359,MRT ศูนย์ราชการนนทบุรี;MRT Nonthaburi Civic Center,13.86018855,100.5129945,359,1
360,MRT ศูนย์วัฒนธรรมแห่งประเทศไทย;MRT Thailand Cultural Centre,13.7663503,100.5704426,360,1
361,MRT ศูนย์การประชุมแห่งชาติสิริกิติ์;MRT Queen Sirikit National Convention Centre,13.72294083,100.5596975,361,1
362,MRT แยกนนทบุรี 1;MRT Yeak Nonthaburi 1,13.8659547,100.4942559,362,1
363,สวนสราญรมย์;Saranrom Park,13.7473484,100.4956886,363,1
364,วังบูรพา;Wangburapa,13.74549502,100.5027055,364,1
365,วัดช่องลม;Wat Chong Lom,13.70277726,100.54595,365,1
366,ม.เซนต์จอห์น;Saint John's University,13.80968804,100.5600514,366,1
367,รพ.เด็ก;Children Hospital,13.76621479,100.5351582,367,1
368,คริสตจักรสะพานเหลือง;Saphan Lueng Church,13.73484276,100.5233421,368,1
369,ซอยรามคำแหง 43/1;Ramkhamhaeng Road Soi 43/1,13.75897375,100.6169975,369,1
370,ตรงข้ามซอยศูนย์วิจัย;Opposite Soi Soonvijai,13.74484142,100.5837494,370,1
371,โลตัสพัฒนาการ;Lotus's Phatthanakan,13.73639534,100.6355993,371,1
372,ตรงข้ามท่าน้ำเป๊ปซี่;Opposite Pepsi Pier,13.72017515,100.5086597,372,1
373,เดอะพาซิโอทาวน์ รามคำแหง;The Paseo Town Ramkhamhaeng,13.77467153,100.6688998,373,1
374,กองบัญชาการกองทัพอากาศ;Royal Thai Air Force,13.92225395,100.6240643,374,1
375,ตรงข้าม รพ.เลิดสิน;Lerdsin Hospital (Opposite),13.72269871,100.5175744,375,1
376,ตรงข้ามแฟชั่นไอส์แลนด์;Fashion Island (Opposite),13.82501156,100.6763573,376,1
377,กรมช่างอากาศ;Directorate of Aeronautical Engineering,13.79334864,100.5309046,377,1
378,ตรงข้ามโรงแรมสุดาพาเลซ;Opposite Suda Palace Hotel,13.78898434,100.5507337,378,1
379,สวนเจ้าเชตุ;Suan Chao Chet,13.74595135,100.4944367,379,1
380,ซอยเอกชัย 46;Soi Ekkachai 46,13.68150401,100.4389358,380,1
381,ตรงข้ามธนาคารไทยพาณิชย์ลาดพร้าว;SCB Lat Phrao (Opposite),13.81023154,100.5663746,381,1
382,ตรงข้ามไปรษณีย์ลาดพร้าว;Post Office Lat Phrao (Opposite),13.78989729,100.6022559,382,1
383,ก่อนแยกหมู่บ้านเศรษฐกิจ;Before Setthakit Village Junction,13.70842625,100.3772268,383,1
384,เซ็นทรัลปิ่นเกล้า;Central Pinklao,13.77889368,100.4764507,384,1
385,อ้อมน้อย;Om Noi,13.70638265,100.298477,385,1
386,ธรรมสภา;Thammasapa,13.78815553,100.3478216,386,1
387,ตรงข้าม รพ.ศิริราช;Siriraj Hospital (Opposite),13.7570376,100.4831802,387,1
388,สน.มีนบุรี;Minburi Police Station,13.81505306,100.7344093,388,1
389,แยกถนนนิมิตรใหม่;Nimitmai Road Intersection,13.81969762,100.7414272,389,1
390,ซอยวิลาลัย;Soi Wilalai,13.60415407,100.7778977,390,1
391,ตรงข้ามซอยวัดสมรโกฎิ;Opposite Soi Wat Samon Kot,13.86281929,100.5015131,391,1
392,ตรงข้ามโรงเรียนเตรียมอุดมศึกษาน้อมเกล้า กุนนที;Opposite Triam Udom Suksa Nomklao Kunnatee School,13.78225694,100.5739506,392,1
393,แยกประชาอุทิศ;Pracha Uthit Intersection,13.67282793,100.5071107,393,1
394,สจล.(คณะวิทยาศาสตร์);KMITL (Faculty of Science),13.72894915,100.7781738,394,1
395,โรงเรียนอนุบาลชุติมา;Chutima Kindergarten,13.74790585,100.6439577,395,1
396,ตรงข้ามบิ๊กซีอิสรภาพ;Opposite Big C Itsaraphap,13.73273104,100.4921729,396,1
397,ก่อนแยกตรอกจันทน์;Before Trok Chan Junction,13.71142874,100.5120658,397,1
398,MRT วัชรพล (ทางออก 4);MRT Watcharaphon Station (Exit 4),13.84925916,100.6424432,398,1
399,แอร์ลิงค์เรสซิเดนซ์;Airlink Residence,13.73604426,100.7463541,399,1
400,ถนนสังคมสงเคราะห์ (ฝั่งประดิษฐ์มนูธรรม);Sangkhom Songkrao Road (Pradit Manutham side),13.79328503,100.6112256,400,1
401,ซอยนาคนิวาส 63;Soi Nakniwat 63,13.82035614,100.6091363,401,1
402,"ซอยวงศ์สว่าง 4;wong sawang soi 4,",13.82065845,100.5202595,402,1
403,ตลาดสินสมบูรณ์(ขาเข้า);Sin Som Boon Market,13.71391799,100.3304532,403,1
404,ตรงข้ามโรงเรียนสามเสน;Samsenwittayalai School (Opposite),13.7842502,100.5352566,404,1
405,ก่อนแยกวงศ์สว่าง;Before Wong Sawang Intersection,13.82919807,100.5296972,405,1
406,ซอยนวลจันทร์ 9;Soi Nuanjun 9,13.81560066,100.6459977,406,1
407,รามคำแหง 2 ซอย 8;Ram Kham Hang 2 Soi 8,13.66977231,100.6841919,407,1
408,ตลาดน้ำนครรังสิต;Nakhon Rangsit Floating Market,13.98798891,100.6334957,408,1
409,หมู่บ้านรัตนาวลัย;Rattanawalai Village,13.94407436,100.6146839,409,1
410,ตรงข้ามวัดอรุณราชวราราม;Opposite Wat Arun Rat Wara Ram ,13.74379137,100.486467,410,1
411,อุทยานเบญจสิริ;Benjasiri Park,13.73136355,100.568244,411,1
412,ซอยประชาอุทิศ 24;Soi Pracha Uthit 24,13.65953475,100.5009257,412,1
413,ซอยสาธุประดิษฐ์ 43;Sathu Pradit Soi 43,13.69018086,100.5341745,413,1
414,ท่ารถเทเวศร์ (สาย 23);Thewet Bus Terminal (23),13.76724043,100.5064514,414,1
415,วัดสามพระยา;Wat Sampraya,13.76567916,100.5002173,415,1
416,ตรงข้ามเคหะนนทบุรี (ฝั่งติวานนท์);Sukpracha Sawan Village,13.90976744,100.5065758,416,1
417,วัดแจงร้อน ;Wat Chaeng Ron,13.67363088,100.5182207,417,1
418,โรงเรียนช่างอากาศบำรุง;Chang Akart Amrung School,13.79746753,100.5322361,418,1
419,วัดปากบ่อ;Wat Pak Bo,13.71045908,100.6318478,419,1
420,หมู่บ้านเคซีกรีนวิลล์;KC Greenville Village,13.85750122,100.8330901,420,1
421,ตรงข้ามซอยเลียบวารี 61; Opposite Soi Liap wari 61,13.85284311,100.8180976,421,1
422,ตรงข้ามชุมชนร่วมพัฒนาสินอนันต์;Ruam Phatthana Sin Anan Community (Opposite),13.85314939,100.8220083,422,1
423,มัสยิดดารุตสลาม บาหยัน (ฝั่งคู้ขวา);Darut Salam Bayan Mosque (right side),13.85343021,100.8242264,423,1
424,โรงเรียนบ้านเจียรดับ (ฝั่งคู้ขวา);Ban Chiandap School (right side),13.85393604,100.8301163,424,1
425,ตรงข้ามหมู่บ้านนันทวัน 10;Nanthawan 10 Village (Opposite),13.85442327,100.8347099,425,1
426,ตรงข้ามชุมชนทรัพย์เจริญ;Sap Charoen Community (Opposite),13.85465885,100.8377289,426,1
427,ตรงข้ามชุมชนพิบูรณ์ทรัพย์ 1;Phi Bun Aap 1 Community (Opposite),13.85484936,100.8392322,427,1
428,ตรงข้ามหมู่บ้านอมรพันธ์-เลียบวารี;Opposite Amornphan-Liap Wari Village,13.85519434,100.8433107,428,1
429,ตรงข้ามหมู่บ้านนันทวัน 5;Nanthawan Village 5 (Opposite),13.85552585,100.8470223,429,1
430,ซอยเลียบวารี 14;Soi Liap Wari 14,13.85574175,100.8502558,430,1
431,ตรงข้ามชุมชนแผ่นดินทองบ้านกระทุ่มราม;Ban Krathum Ram Community (Opposite),13.855775,100.851541,431,1
432,"แม็คโครหนองจอก;Makro Supermaket,Nong Chok",13.85595645,100.8550526,432,1
433,ซอยเลียบวารี 6;Soi Liap Wari 6,13.85605013,100.8566753,433,1
434,รพ.เวชการุณย์รัศมิ์;Wetchakarunrasm Hospital,13.85583762,100.8592009,434,1
435,โรงเรียนสุเหร่าหะยีมินา;Hayeemina School,13.85402862,100.8694571,435,1
436,ตรงข้ามหมู่บ้านบุราพันธ์;Opposite Muban Bura Phan,13.85253245,100.8749562,436,1
437,ตรงข้ามหมู่บ้าน นันทวัน เซ็นต์ 2;Opposite Muban Nantawan Sent 2,13.85071686,100.8818072,437,1
438,ตรงข้ามหมู่บ้านจามจุรี หนองจอก;Opposite Muban Cham Churi Nong Chok,13.85027844,100.8833984,438,1
439,ตรงข้ามหมู่บ้านดิเอ็กซ์เทนโซ;Opposite Muban The Extenso,13.84922879,100.8882098,439,1
440,ตรงข้ามโรงเรียนสามแยกท่าไข่;Opposite Sam Yaek Tha Khai School ,13.84847892,100.8912165,440,1
441,ตรงข้ามหมู่บ้านทองธารา;Opposite Muban Thong Tara Village,13.84738208,100.8926873,441,1
442,ชุมชนเกาะกลางพัฒนา;Chumchon Ko Klang Pattana,13.84474049,100.8969972,442,1
443,ตรงข้ามมัสยิดดาริสซุนนะห์; OppositeDari Sunnah Mosque,13.8388365,100.9021202,443,1
444,ตรงข้ามเดอะไพน์กอล์ฟ;Opposite The Pine Golf,13.83629516,100.9062991,444,1
445,ตรงข้ามบ้านเอื้ออาทรสันติสุข;Opposite Kheha Suntisuk,13.83518387,100.9080921,445,1
446,ตรงข้ามหมู่บ้านร่มเย็น;Romyen Village (Opposite),13.81516946,100.934824,446,1
447,ตรงข้ามหมู่บ้านแลนด์วิลล่า;Land Villa Village (Opposite),13.92882681,100.4075606,447,1
448,หมู่บ้านกิตติชัยวิลล่า 2;Kittichai Villa. 2,13.85768342,100.8351441,448,1
449,ซอยมิตรไมตรี 6/8;Soi Mit Maitri 6/8,13.85878325,100.8446518,449,1
450,ซอยมิตรไมตรี 6/2;Soi Mit Maitri 6/2,13.859345,100.8497051,450,1
451,ตรงข้ามวิทยาลัยอาชีวศึกษาศาสนบริหารธุรกิจ;Opposite Religious Business Administration Vocational College,13.85950241,100.8535762,451,1
452,ตรงข้ามคลองบึงเตย (ขาเข้า);Opposite Bueng Toei Canal (inbound),13.8740554,100.8633924,452,1
453,ตรงข้ามซอยประชาสำราญ 2;Soi Pracha Samran 2 (Opposite),13.88499895,100.8638158,453,1
454,ตรงข้ามซอยพัฒนสุข;Soi Phatanasuk (Opposite),13.90063169,100.862865,454,1
455,ตรงข้ามหมู่บ้านเธียรทอง 4;Opposite Muban Thian Thong 4,13.90721588,100.8631175,455,1
456,ข้ามซอยเธียรทอง 2;Soi Thien Thong 2 ,13.90261396,100.8630343,456,1
457,หมู่บ้านเธียรทอง 3;Thien Thong 3 Village,13.92455293,100.864126,457,1
458,แยกหลวงแพ่ง;Luang Phaeng Intersection,13.81401829,100.9362523,458,1
459,หมู่บ้านร่มเย็น;Romyen Village,13.81511149,100.9346483,459,1
460,ทหารประชาอุทิศ1(ขาออก);Thahan Pracha Uthit 1,13.81561838,100.9338019,460,1
461,บ้านเอื้ออาทร สันติสุข;Santisuk National Housing,13.83532451,100.9077059,461,1
462,ตรงข้ามชุมชนรุ่งเรือง;Opposite Chumchon Rungrueang,13.83666036,100.9054102,462,1
463,มัสยิดดาริสซุนนะห์;Dari Sunnah Mosque,13.83874316,100.902092,463,1
464,ตรงข้ามซอยสังฆสันติสุข 69;Opposite Soi Sangkhasantisuk 69,13.842211,100.900103,464,1
465,ตรงข้ามหมู่บ้านเกาะกลางพัฒนา;Opposite Muban Ko Klang Pattana,13.84464437,100.8968611,465,1
466,หมู่บ้านทองธารา;Muban Thong Thara,13.84699744,100.8929542,466,1
467,โรงเรียนสามแยกท่าไข่;Sam Yaek Tha Khai School,13.84846807,100.8907591,467,1
468,หมู่บ้านดิเอ็กซ์เทนโซ;Muban The Extenso,13.84911848,100.8880803,468,1
469,หมู่บ้านจามจุรี หนองจอก;Muban Cham Churi Nong Chok,13.85015083,100.8833648,469,1
470,หมู่บ้านนันทวัน เซ็นต์ 2;Muban Nantawan Sent 2,13.85059808,100.8818588,470,1
471,หมู่บ้านบุราพันธิ์;Muban Bura Phan,13.85238654,100.8749494,471,1
472,ถนนอยู่วิทยา; Yuwitthaya Road,13.85388061,100.8691873,472,1
473,สวนหนองจอก (ฝั่งเลียบวารี);Nong Chok Park (Liap Wari side),13.85571096,100.8582186,473,1
474,ตรงข้ามซอยเด่นดวง;Soi Den Duang (Opposite),13.85589515,100.8567656,474,1
475,บิ๊กซีหนองจอก;Big C Nong chok,13.85570734,100.8547269,475,1
476,ซอยเลียบวารี 7;Soi Liab Waree 7,13.85560159,100.8514248,476,1
477,ตรงข้ามซอยเลียบวารี 18;Soi Liap wari 18 (Opposite),13.85553286,100.8494912,477,1
478,หมู่บ้านนันทวัน 5;Nanthawan Village 5,13.85536375,100.8473063,478,1
479,ซอยเลียบวารี 21;Soi Liap Wari 21,13.85494235,100.8428737,479,1
480,ชุมชนพิบูรณ์ทรัพย์ 1;Piboonsap Community 1,13.85458288,100.8386602,480,1
481,ชุมชนทรัพย์เจริญ;Sapcharoen Community,13.85443251,100.8373452,481,1
482,หมู่บ้านนันทวัน 10;Nanthawan 10 Village,13.85418707,100.8346705,482,1
483,ตรงข้ามโรงเรียนเจียรดับ  (ฝั่งคู้ขวา);Opposite Ban Chiandap School (right side),13.85361029,100.8285534,483,1
484,ซอยเลียบวารี 53;Soi Liap Wari 53,13.85315704,100.8235345,484,1
485,ชุมชนร่วมพัฒนาสินอนันต์;Ruam Phatthana Sin Anan Community,13.85306447,100.8220233,485,1
486,ซอยเลียบวารี 11;Soi Liap Wari 11,13.852736,100.818781,486,1
487,ชุมชนแผ่นดินทอง;Phaen Din Thong Community,13.85245309,100.8155015,487,1
488,หมู่บ้านไมตรีจิต;Opposite Maitrijit Village,13.85216839,100.8135375,488,1
489,ปัญญาไดนาโมแอร์;Panya Dinamo Air,13.850832,100.805623,489,1
490,เลียบวารีตรงข้ามซอยห้าพี่น้อง;Liap Wari,13.848988,100.802334,490,1
491,ตรงข้ามโรงเรียนสุเหร่าทรายกองดิน;Sai Kong Din Mosque School (Opposite),13.83355723,100.7747157,491,1
492,ชุมชนเตวาหมัด;Teewamad Community,13.82130115,100.7528191,492,1
493,ตรงข้ามการไฟฟ้ามีนบุรี;Metropolitan Electricity Authority Min Buri (Opposite),13.815956,100.746463,493,1
494,มัสยิดอิดด์ฮาดร์อูรูมุดดีน;Izhar Ulumuddin Mosque,13.82896053,100.7673422,494,1
495,โรงเรียนสุเหร่าทรายกองดิน;Surao Sai Kong Din School,13.83416721,100.7750549,495,1
496,ถนนราษฎร์ร่วมใจ (ฝั่งคู้ขวา); Rat Ruam Jai Road (right side),13.83819504,100.7822676,496,1
497,ซอยราษฎร์อุทิศ 55;Soi Rat Uthit 55,13.84798778,100.7999525,497,1
498,วัดทรัพย์สโมสร;Wat Sap Samoson,13.84991863,100.8036681,498,1
499,ตรงข้ามปัญญาไดนาโมแอร์;Panya Dinamo Air (Opposite),13.85082,100.805275,499,1
500,ตรงข้ามหมู่บ้านไมตรีจิต;Opposite Maitrijit Village,13.85236421,100.8132393,500,1
501,ตรงข้ามชุมชนแผนดินทอง;Phaen Din Thong Community (Opposite),13.85256509,100.8155007,501,1
502,"ตรงข้ามวัดมะเดื่อ,บางใหญ่วัสดุภัณฑ์;Wat Maduea (Opposite), Bang Yai Watsaduphan",13.87522755,100.4229009,502,1
503,MRT บางรักใหญ่ (ทางออก 2);MRT Bangrak Yai Station (Exit 2),13.87693018,100.4455144,503,1
504,วัดบางแพรก;Wat Bang Phraek,13.87504509,100.427333,504,1
505,ซอยวัดลาดปลาดุก;Soi Wat Ladpladuk,13.90508874,100.4069275,505,1
506,ซอยอนันตนาค;Soi Anantanak,13.75132426,100.5169193,506,1
507,ตรงข้ามตลาดโบ๊เบ๊;Opposite Bobae Market,13.7544493,100.517122,507,1
508,ตรงข้ามซอยอนันตนาค;Opposite Soi Anantanak,13.7518435,100.5171197,508,1
509,ตลาดโบ้เบ้;Boe Bae Market,13.75041028,100.5169648,509,1
510,ก่อนแยกสะพานเหลือง;Before Saphan Lueang Intersection,13.73668468,100.52185,510,1
511,ก่อนแยกประดิพัทธ์;Before Pradipat Intersection,13.79436447,100.5389743,511,1
512,บางพลี;Bang Phli,13.63508754,100.7094019,512,1
513,หมู่บ้านคลอง 5;Khlong 5 Village,14.01255657,100.7159722,513,1
514,หมู่บ้านคลอง 5;Khlong 5 Village,14.0124504,100.7164854,514,1
515,ตรงข้ามหมู่บ้านมัณฑนา 2 รังสิตคลอง 2 ;Manthana Village 2 Rangsit Khlong 2,13.99249302,100.6525594,515,1
516,ศูนย์สุขภาพชุมชน;Health center,13.71498472,100.3301992,516,1
517,ปากทางเข้าถนนลำลูกกา;Lam Luk Ka Road,13.94987723,100.6237005,517,1
518,ชุมชนจามรเดชเจริญ;Chumchon Chamon Detcharoen,13.95079597,100.6339749,518,1
519,ปากทางคลองสอง;Pak Thang Klong 2,13.9497473,100.6431432,519,1
520,แยกหมู่บ้านฟ้าครามคลอง 2;Fah Khram Klong 2 Village Intersection,13.94765663,100.6430097,520,1
521,เทศบาลเมืองคูคต;Khu Khot City Municipality,13.94193772,100.6423847,521,1
522,ตรงข้ามวัดโพสพผลเจริญ;Opposite Wat Phosop Phoncharoen,13.93923689,100.6421296,522,1
523,ตรงข้ามสถานีตำรวจคูคต;Police Station KhuKhot (Opposite),13.9344623,100.6417006,523,1
524,ซอยสุนีย์;Soi Sunee,13.93227221,100.6529845,524,1
525,โรงเรียนผ่องสุวรรณวิทยา;Phong Suwan Wittaya School,13.93223447,100.6572801,525,1
526,ซอยเปียร์นนท์;Soi Pianon,13.93213134,100.6607485,526,1
527,หมู่บ้านดีไลท์ วงแหวน-วัชรพล; Delight Village Wongwaen-Watcharaphon,13.93210962,100.6640148,527,1
528,หมู่บ้านลัลลี่วิลล์;Lally Ville Village,13.93241696,100.6725156,528,1
529,หมู่บ้านคัทลียาวิลล์;Muban Cattleya Ville,13.9325235,100.6752317,529,1
530,การเคหะคลอง 4;Housing Khlong 4,13.93288685,100.6850577,530,1
531,ตรงข้ามวัดคลองชัน;Opposite Wat Khlong San,13.93306101,100.6887397,531,1
532,สนามกอล์ฟธัญธานี;Thanyathani Golf Course,13.93335191,100.6957038,532,1
533,ชัยบูรณ์บราเดอร์ส;Chai Bun Brothers,13.93349229,100.6994722,533,1
534,บิ๊กซีลำลูกกาคลอง 5;Big C Lam Luk Ka Khlong 5,13.93402617,100.7144646,534,1
535,โฮมโปรลำลูกกา;Home Pro Lam Luk Ka,13.93415804,100.7196592,535,1
536,ตรงข้ามโรงเรียนวัดประชุมราษฎร์;Opposite Wat Sametrat School,13.93425596,100.7219952,536,1
537,ลำลูกกาคลอง 6 (ขาออก);Lam Luk Ka Khlong 6 (Outbound),13.93436064,100.7270539,537,1
538,ไทยไทโย;Thai Taiyo,13.93448382,100.7314671,538,1
539,หมู่บ้านฟ้าปิยรมย์;Fah Piyarom Village,13.93475749,100.7401432,539,1
540,ตรงข้ามที่ว่าการอำเภอลำลูกกา;Opposite Lam Luk Ka District Office,13.9350818,100.7492989,540,1
541,ตลาดใหญ่คลอง 7 ลำลูกกา;Lamlukka Khlong 7 Market,13.9363478,100.7520008,541,1
542,ที่ว่าการอำเภอลำลูกกา;Lamlukka District Office,13.93485367,100.7494802,542,1
543,ตรงข้ามหมู่บ้านฟ้าปิยรมย์;Fah Piyarom Village (Opposite),13.93450977,100.7397887,543,1
544,ตรงข้ามเทสโก้โลตัสลำลูกกาคลอง 6;Tesco Lotus Lam Luk Ka Khlong 6 (Opposite),13.93439016,100.7361238,544,1
545,ลำลูกกาคลอง 6 (ขาเข้า);Lam Luk Ka Khlong 6 (Inbound),13.93412447,100.7272539,545,1
546,โรงเรียนวัดประชุมราษฎร์;Wat Prachumrat School,13.9340262,100.7222781,546,1
547,ตรงข้ามโฮมโปรลำลูกกา;Opposite Home Pro Lam Luk Ka,13.93395362,100.7201048,547,1
548,ตรงข้ามบิ๊กซีคลอง 5 ลำลูกกา;Big C Lamlukka Khlong 5 (Opposite),13.93376324,100.7150122,548,1
549,สมาคมภริยาทหารเรือ;Thai Navy Wives Association,13.74778756,100.4900737,549,1
550,ท่าราชวรดิษฐ์;Tha Ratchawadit,13.74998668,100.4895563,550,1
551,ท่าช้าง;Tha Chang,13.7518999,100.4892744,551,1
552,กระทรวงกลาโหม;Ministry of Defense,13.75030864,100.4939619,552,1
553,โลตัสศาลายา;Tesco Lotus Salaya,13.78634943,100.298425,553,1
554,ตรงข้ามตลาดน้ำดอนหวาย;Wat Don Wai Floating Market (Opposite),13.77351706,100.283658,554,1
555,ตรงข้ามวัดดอนหวาย;Opposite Wat Don Wai ,13.77222289,100.2853879,555,1
556,ตรงข้ามตลาดน้ำดอนหวาย;Opposite Don Wai Floating Market,13.76869662,100.2860099,556,1
557,ซอยไร่ขิง 42;Soi Rai Khing 42,13.76232352,100.2854777,557,1
558,ตรงข้ามปั้มพีที ไร่ขิง;Opposite PT Raikhing,13.7565426,100.2826583,558,1
559,ตรงข้ามวัดท่าพูด;Wat Tha Phut (Opposite),13.74699683,100.2770061,559,1
560,ซอยไร่ขิง 26;Soi Raikhing 26,13.74432063,100.2729264,560,1
561,ซอยไร่ขิง 22;Soi Raikhing 22,13.74274595,100.270023,561,1
562,ตรงข้ามศึกษาภัณฑ์ ไร่ขิง;Opposite Suksapan Rai Khing ,13.74076901,100.2668059,562,1
563,โรงเรียนวัดไร่ขิง;Wat Rai Khing School,13.7404537,100.2600775,563,1
564,ตรงข้ามโรงเรียนวัดไร่ขิง;Wat Rai Khing School (Opposite),13.74054228,100.2601836,564,1
565,ศึกษาภัณฑ์ ไร่ขิง;Rai Khing Suksapan,13.74088916,100.2667453,565,1
566,ตรงข้ามซอยไร่ขิง 22;Opposite Soi Raikhing 22,13.74292209,100.2700787,566,1
567,ตรงข้ามซอยไร่ขิง 26;Opposite Soi Raikhing 26,13.74441357,100.2729008,567,1
568,วัดท่าพูด;Wat Tha Phut,13.74710476,100.2769595,568,1
569,ปั้มพีที ไร่ขิง;PT Raikhing,13.75659484,100.2825559,569,1
570,ตรงข้ามซอยไร่ขิง 42;Soi Rai Khing 42 (Opposite),13.76247321,100.2853972,570,1
571,ตลาดน้ำดอนหวาย;Don Wai Floating Market,13.76843948,100.2859196,571,1
572,วัดดอนหวาย;Wat Don Wai,13.77194978,100.2853972,572,1
573,ตลาดน้ำดอนหวาย;Don Wai Floating Market,13.77345261,100.2836134,573,1
574,หลังสถานีขนส่งสินค้าพุทธมณฑล;Behind Phutthamonthon Terminal,13.78647842,100.2886925,574,1
575,หมู่บ้านพฤกษ์ลดา ปิ่นเกล้า-สาย 5;Pruklada Pinklao Sai 5 Village,13.78667276,100.292771,575,1
576,ตรงข้ามโลตัสศาลายา;Tesco Lotus Salaya (Opposite),13.78687075,100.2982006,576,1
577,ถนนพุทธมณฑลสาย 5;Phutthamonthon Sai 5 Road,13.78792514,100.3029311,577,1
578,มทร.รัตนโกสินทร์;Rajamangala University Of Technology Rattanakosin,13.79577092,100.3032148,578,1
579,ที่ว่าการอำเภอพุทธมณฑล;Phutthamonthon District Office,13.801378,100.322398,579,1
580,ฮั่วเซ่งฮง;Hua Seng Hong,13.800001,100.327338,580,1
581,หมู่บ้านสกุลทิพย์;Sakulthip Village,13.78838748,100.3368508,581,1
582,โรงเรียนอนุบาลพลอยแก้ว;Ploykaew Kindergarten,13.78871351,100.3565353,582,1
583,หมู่บ้านพระปิ่น 2 (ฝั่งบรมฯ);Phra Pin 2 Village (Borom side),13.78665978,100.3759196,583,1
584,หมู่บ้านเดอะซิตี้;The City Village,13.78558788,100.3864236,584,1
585,สำนักงานเขตตลิ่งชัน;Taling Chan District Office,13.77743475,100.4552011,585,1
586,ท่ารถสาย 159 ชักพระ(ซอยชักพระ15);Bus Depot Line 159 (Soi Chak Phra 15),13.77960883,100.45833,586,1
587,โรงเรียนนิลประพันธ์;Nilaprapan School,13.78030125,100.4595553,587,1
588,ตรงข้ามบางขุนนนท์ทาวเวอร์;bang khun non tower (Opposite),13.78095282,100.4626469,588,1
589,ตลาดบางขุนนนท์;Bang Khun Non Market,13.76539265,100.4726945,589,1
590,ตรงข้ามวัดศรีสุดาราม;Opposite Wat Sisudaram,13.76595617,100.4720528,590,1
591,วัดบางขุนนนท์;Wat Bang Khunnon,13.76846844,100.4698522,591,1
592,สำนักงานเขตบางกอกน้อย;Bangkok Noi District Office,13.77122712,100.4681511,592,1
593,วัดเจ้าอาม;Wat Chao Nam,13.77509939,100.4660907,593,1
594,กรมบังคับคดี;Legal Execution Department,13.77719361,100.4651475,594,1
595,แยกชักพระ;Chak Phra Intersection,13.78126816,100.464773,595,1
596,ซอยชักพระ 1;Soi Chak Phra 1,13.78131406,100.464041,596,1
597,ตรงข้ามสำนักงานเขตตลิ่งชัน;Taling Chan District Office (Opposite),13.77756709,100.4552785,597,1
598,แยกชักพระ(ธนาคารออมสิน);Chak Phra Intersection (Government Savings Bank),13.78127582,100.4648352,598,1
599,ตรงข้ามกรมบังคับคดี;Legal Execution Department (Opposite),13.77716939,100.4653234,599,1
600,ตรงข้ามวัดเจ้าอาม;Wat Chao Nam (Opposite),13.77586531,100.4659501,600,1
601,ตรงข้ามการยางแห่งประเทศไทย;Opposite Rubber Authority Of Thailand,13.7718599,100.4680087,601,1
602,ตรงข้ามวัดบางขุนนนท์;Opposite Wat Bang Khunnon,13.76829597,100.470169,602,1
603,ตรงข้ามตลาดบางขุนนนท์;Bang Khun Non Market (Opposite),13.76429978,100.4734482,603,1
604,สุนทรีย์พระประแดง;Suntharee Phrapradaeng,13.66471217,100.5268293,604,1
605,หน้าบริษัทหัวไผ่เซ็นเตอร์จำกัด;Hua Phai Center Company Limited,13.66720088,100.5231761,605,1
606,ตรงข้ามซอยพระราชวิริยาภรณ์ 16;Soi Phraratchawiriyaphon 16 (Opposite),13.66792832,100.5218308,606,1
607,ซอยราษฏ์บูรณะ 46;Soi Rat Burana 46,13.67210761,100.5186744,607,1
608,แชปเตอร์วันราษฎร์บูรณะ;Chapter One Ratburana,13.67548993,100.5171515,608,1
609,ตรงข้ามซอยราษฏ์บูรณะ 46;Soi Rat Burana 46 (Opposite),13.67203095,100.5188988,609,1
610,ซอยราษฎร์บูรณะ 39;Soi Rat Burana 39,13.67082327,100.5190615,610,1
611,ซอยบูรณะสุดเขต 4;Soi Burana Sutket 4,13.66933256,100.5193538,611,1
612,ซอยพระราชวิริยาภรณ์ 16;Soi Phraratchawiriyaphon 16,13.66809642,100.5216771,612,1
613,ตรงข้ามบริษัทหัวไผ่เซ็นเตอร์จำกัด;Hua Phai Center Company Limited (Opposite),13.66736311,100.5231017,613,1
614,ตรงข้ามกระทรวงมหาดไทย;Ministy of the Interior (Opposite),13.75108123,100.4961268,614,1
615,วัดราชประดิษฐ์;Wat Ratchapradit,13.74922008,100.4961619,615,1
616,อู่สวนสยาม;Bus Depot Suan Siam,13.80125022,100.6936605,616,1
617,ตลาดนางลิ้นจี่;Nang Linchi Market,13.70814295,100.5429861,617,1
618,เซ็นทรัลเอ็มบาสซี่;Central Embassy,13.74509711,100.547769,618,1
619,หมู่บ้านซื่อตรง รัตนาธิเบศร์;Suetrong Rattanathibet Village,13.8700801,100.4673783,619,1
620,วัดมะเดื่อ;Wat Maduea,13.87472201,100.4230062,620,1
621,วัดไผ่เหลือง;Wat Phai Lueang,13.87557736,100.4275275,621,1
622,โรงเรียนเพชรรัตน์;Petcharat School,13.8483772,100.5433317,622,1
623,ตรงข้ามซอยประชาชื่น 44;Opposite Soi Pracha Chuen 44,13.84637091,100.5428506,623,1
624,ตรงข้ามประชาชื่นเรสซิเด้นซ์;Opposite Pracha Chuen Residence,13.8412918,100.5416307,624,1
625,หมู่บ้านชลนิเวศน์;Chon Niwet Village,13.83859675,100.5410319,625,1
626,หมู่บ้านซีเมนต์ไทย;Cement Thai Housing,13.83527946,100.5402707,626,1
627,ซอยคลังมนตรี;Soi Khlang Montri,13.82713873,100.5383516,627,1
628,ซอยเสริมสุข;Soi Soem Suk,13.82448071,100.5376974,628,1
629,วิมลบริหารธุรกิจ;Wimol Business Administration Technological College,13.81908875,100.5364461,629,1
630,สะพาน 99;Bridge 99,13.81715668,100.5359989,630,1
631,ตรงข้ามซอยประชาชื่น 11;Opposite Pracha Chuen 11,13.81305701,100.5350459,631,1
632,ตรงข้ามยูดีไลท์บางซื่อ;Opposite U Delight Bangsue,13.81111478,100.5345652,632,1
633,โลตัสประชาชื่น;Tesco Lotus Prachachuen,13.80692844,100.5336258,633,1
634,ซอยประชาชื่น 1;Pracha Chuen 1,13.80799487,100.5336467,634,1
635,ตรงข้ามสำนักงานเขตบางซื่อ;Bangsue District Office (Opposite),13.8098433,100.5340798,635,1
636,ซอยประชาชื่น 12;Prachachun 12,13.81378033,100.5350068,636,1
637,ตรงข้ามสะพาน 99;Bridge 99 (Opposite),13.8159776,100.5355384,637,1
638,ตรงข้ามวิมลบริหารธุรกิจ;Opposite Wimon Business Administration Technological College,13.81855395,100.5361212,638,1
639,ตรงข้ามซอยเสริมสุข;Soi Soem Suk (Opposite),13.82401597,100.5373974,639,1
640,ตรงข้ามซอยคลังมนตรี;Soi Khlang Montri (Opposite),13.82655927,100.5380103,640,1
641,แยกประชานุกูล;Yaek Prachanukul,13.82892721,100.5385522,641,1
642,รพ. เกษมราษฎร์ ประชาชื่น;Kasemrad Hospital Pracha Chuen,13.83287281,100.5394729,642,1
643,ตรงข้ามหมู่บ้านซีเมนต์ไทย;Opposite Cement Thai Housing,13.83481977,100.5399623,643,1
644,ตรงข้ามหมู่บ้านชลนิเวศน์;Opposite Chon Niwet Village,13.83809599,100.5407334,644,1
645,ประชาชื่นเรสซิเด้นซ์;Pracha Chuen Residence,13.84172834,100.541572,645,1
646,ลุมพินีวิลล์ ประชาชื่น-พงษ์เพชร 2;Lumpini Ville Pracha Chuen-Pongphet 2,13.84548669,100.5424583,646,1
647,ตรงข้ามโรงเรียนเพชรรัตน์;Opposite Petcharat School,13.84818212,100.5430891,647,1
648,โรงแรมพงษ์เพชรเกสโตเต็ล;Pongpetch Guestotel Hotel,13.85205603,100.5441925,648,1
649,ตรงข้าม ม.ธุรกิจบัณฑิตย์;Dhurakij Pundit University (Opposite),13.87100017,100.5485245,649,1
650,ตรงข้ามโรงแรมบางกอกมิดทาวน์;Opposite Bangkok Midtown Hotel,13.75749787,100.5242289,650,1
651,ชุมชนบ้านครัว;Ban Khrua Community,13.75153688,100.5253803,651,1
652,ตรงข้ามซอยจุฬาลงกรณ์ 10;Opposite Soi Chulalongkorn 10,13.744913,100.5232179,652,1
653,ตรงข้ามอินทาปัจ 11;Inthapat 11 (Opposite),13.69539809,100.3794855,653,1
654,หมู่บ้านนิสา;Nisa Village,13.69803454,100.3782384,654,1
655,บ้านนายพลกฤษณ์;Paulkris Home,13.69920293,100.377688,655,1
656,หมู่บ้านขวัญทิพย์;Khwan Thip Village,13.70471172,100.3750942,656,1
657,ตรงข้ามวิคตอเรียการ์เด้น;Victoria Gardens (Opposite),13.70681645,100.374086,657,1
658,ซอยโชติวิจิตร;Soi Chotivichit,13.70500861,100.375094,658,1
659,หมู่บ้านสันติสุข;Santisuk Village,13.69966354,100.3776047,659,1
660,ท่าปล่อยรถ คลองขวาง;Klongkwang Bus Terminal,13.68597974,100.3817449,660,1
661,หมู่บ้านสายันต์ 2;Sayun village 2,13.88212186,100.5340043,661,1
662,ตรงข้ามหมู่บ้านพรมนิเวศ;Opposite Muban Phrom Niwet,13.88189738,100.5355912,662,1
663,ตรงข้ามบ้านเอื่ออาทร ประชานิเวศน์;Pracha Niwet Generous Village (Opposite),13.88157498,100.5375167,663,1
664,แยกพงษ์เพชร (ขาเข้า);Phongphet Intersection (Inbound),13.85522683,100.5449556,664,1
665,LPNสระว่ายน้ำ;LPN Swimming Pool,13.8515579,100.5440282,665,1
666,ตรงข้ามหมู่บ้านประชานิเวศน์ 1;Opposite Pracha Niwet 1 Village,13.84321063,100.5419309,666,1
667,ตรงข้ามมณฑลทหารบกที่ 11 (ฝั่งอำนวยสงคราม);Opposite 11th Military Circle (Amnuay Songkhram side),13.78393861,100.523295,667,1
668,นิชาดาแมนชั่น;Nichada Mansion,13.78491819,100.5217362,668,1
669,ตรงข้ามรักษาดินแดน;Rak Sa Din Daen (Opposite),13.78501972,100.5197238,669,1
670,ซอยสันติสุข;Soi Suntisuk,13.78377676,100.519065,670,1
671,ก่อนแยกขัตติยานี (ฝั่งพิชัย);Yaek Khattiyani (Phichai side),13.77924292,100.5167538,671,1
672,วชิราวุธวิทยาลัย;Vajiravudh College,13.77690327,100.5156851,672,1
673,ตรงข้ามพิพิธภัณฑ์สถานแห่งชาติช่างต้น;Changton National Museum (Opposite),13.77380846,100.5149723,673,1
674,พระที่นั่งอนันตสมาคม;Ananta Samakhom Throne Hall,13.77115422,100.5149085,674,1
675,สวนสัตว์ดุสิต;Dusit Zoo,13.7707282,100.5147499,675,1
676,รัฐสภา;The Parliament,13.77340657,100.5145708,676,1
677,หลังแยกขัตติยานี(ฝั่งพิชัย);Yaek Khattiyani (Phichai Side),13.77898625,100.516514,677,1
678,ซอยร่วมจิต4;Soi Ruamchit 4,13.78466953,100.5194217,678,1
679,ตรงข้ามซอยรักษาดินแดน;Soi Raksa Din Daeng (Opposite),13.78525992,100.5197572,679,1
680,สามแยกพิชัย;Sam Yaek Phichai,13.78545957,100.5210491,680,1
681,มณฑลทหารบกที่ 11 (ฝั่งอำนวยสงคราม);11th Military Circle (Amnuay Songkhram side),13.7843564,100.5228222,681,1
682,หมู่บ้านประชานิเวศน์ 2;Pracha Niwet 2 Village,13.88056736,100.5438768,682,1
683,ตรงข้ามหมู่บ้านบ้านประชาชื่น;Opposite Ban Prachachuen Village,13.88097604,100.5398864,683,1
684,บ้านเอื้ออาทร ประชานิเวศน์;Ban Uea Athorn Prachaniwet,13.88153878,100.5374236,684,1
685,หมู่บ้านประชาสามัคคี-รุ่งทรัพย์;Muban Pracha Samakkee Rungsap,13.88204999,100.5340037,685,1
686,รพ.ท่าเรือ (ฝั่งอาจณรงค์);Tha Ruea Hospital (At Narong side),13.71400837,100.5668627,686,1
687,ม.กรุงเทพ (ประตู 2);Bangkok University (Door 2),13.71131621,100.5830378,687,1
688,ซอยบาร์โบส 2;Soi Sarbot 2,13.71606553,100.5846834,688,1
689,กองบัญชาการตำรวจนครบาล;Metropolitan Police Bureau,13.76893771,100.5095613,689,1
690,โรงเรียนราชวินิต;Rajavinit School,13.77061336,100.508624,690,1
691,สวนอัมพร;Amphorn Park,13.76916737,100.5097134,691,1
692,โรงเรียนปทุมคงคา;Pathumkongka School,13.71851751,100.5805876,692,1
693,ข้างกรมศุลกากร;Thai Customs Department (Beside),13.71351393,100.5671126,693,1
694,เคหะสุขาภิบาล 1;Kheha Sukhaphiban 1,13.82015187,100.6668971,694,1
695,แชมเบอร์ส รามอินทรา;Chambers Ramintra,13.81981971,100.6623683,695,1
696,ซอยนวมินทร์ 74 แยก 1-9 (ฝั่งเหนือ);Soi Nawamin 74 Yaek 1-9 (North side),13.81997675,100.65931,696,1
697,หมู่บ้านเวิร์คเพลส รัชดา-รามอินทรา;Work place Ratchada-Ramintra Village,13.8202014,100.6621583,697,1
698,หมู่บ้านบางกอกบูเลอวาร์ด รัชดา-รามอินทรา;Bangkok Boulevard Ratchada-Ramintra Village,13.82046632,100.6675941,698,1
699,ซอยพุทธบูชา 39;Phutthabucha Soi 39,13.65026359,100.4813376,699,1
700,ซอยพุทธบูชา 37/1 (ถนนพุทธบูชาขาเข้า);Phutthabucha Soi 37/1,13.65095003,100.4790484,700,1
701,ซอยพุทธบูชา 28;Phutthabucha Soi 28,13.65117816,100.4747806,701,1
702,อู่ธารทิพย์;Bus Depot Thantip,13.64401526,100.4788571,702,1
703,ตรงข้ามหมู่บ้านมัณฑนา พระราม 2 - พุทธบูชา;Opposite Manthana Rama 2 - Phuttha Bucha Village,13.65085556,100.4833044,703,1
704,ตรงข้ามหมู่บ้านบางมดแลนด์;Opposite Bangmod Land Village,13.65040385,100.4892284,704,1
705,ตรงข้ามบ้านสวนธน;Opposite Baan Suan Thon,13.65103456,100.4873122,705,1
706,ตรงข้ามโรงเรียนมหรรณพาราม;Opposite Mahanapharam School,13.77850349,100.4475817,706,1
707,ตรงข้ามวัดมณฑป;Wat Mondop (Opposite),13.77845017,100.4484679,707,1
708,"บริษัทออโตแพคจำกัด;Autopack Co.,Ltd.",13.77922286,100.4517669,708,1
709,ซอยสมเด็จพระปิ่นเกล้า 3;Soi Somdet Phra Pinklao 3,13.76501308,100.4880222,709,1
710,วัดช่างเหล็ก;Wat Chang Lek,13.77904288,100.4519722,710,1
711,วัดมณฑป;Wat Mondop,13.77837084,100.4483873,711,1
712,โรงเรียนมหรรณพาราม;Mahannaparam School,13.77839535,100.4469776,712,1
713,ตรงข้ามพุทธมณฑลสาย 5 ซอย 4;Phutthamonthon Sai 5 Soi 4,13.71127819,100.2977511,713,1
714,"T.O.P.Cosmatic;T.O.P Cosmetic & Manufacture Co., Ltd.",13.71511827,100.2984394,714,1
715,แยกสอเจริญพันธ์;Sor. Charoen Phan Intersection,13.72191204,100.298885,715,1
716,"บริษัทออโตแพคจำกัดตรงข้ามแฟคตอรี่แลนด์โครงการ 2;Autopack Co.,Ltd. Factory Land 2 (Opposite)",13.73134048,100.2993193,716,1
717,บ้านคลองบางซื่อ;Ban Khlong Bang Sue,13.73883756,100.2998097,717,1
718,ท่ารถประจำทางสาย 81;Bus Depot Line 81,13.74973222,100.3006381,718,1
719,พุทธมณฑลสาย 5;Phutthamonthon Sai 5,13.74766034,100.3003341,719,1
720,หมู่บ้านกลาโหมนิเวศน์;Kalahom Niwet Village,13.73931618,100.299869,720,1
721,"บริษัทออโตแพคจำกัด;Autopack Co.,Ltd.",13.73081781,100.2993989,721,1
722,ตรงข้ามอู่วิริยะ;Bunsong Car Care (Opposie),13.72456314,100.2989851,722,1
723,"บริษัทมหพันธ์ไฟเบอร์ซีเมนต์จำกัด;Mahaphan Fibre-Cement Public Co.,Ltd.",13.71949335,100.2987013,723,1
724,พุทธมณฑลสาย 5 ซอย 8;Phutthamonthon Sai 5 Soi 8,13.71370802,100.2982693,724,1
725,ตรงข้ามพุทธมณฑลสาย 5 ซอย 6;Phutthamonthon Sai 5 Soi 6 (Opposite),13.71135467,100.2982044,725,1
726,ซอยท่าตลาด 6;Tha Talat 6,13.74244964,100.2504988,726,1
727,โรมัน;loman,13.72348535,100.2548116,727,1
728,หลังแยกเพชรเกษม-พุทธมณฑลสาย 6;After separation Phet Kasem -Phutthamonthon Sai 6,13.73953942,100.2414231,728,1
729,ข้างร้านเคพีแก๊ส;Kp-Gas (Beside),13.73562299,100.2445895,729,1
730,หมู่บ้านศรีสามพราน;Village Sri Sampran,13.73051197,100.2489227,730,1
731,หมู่บ้านสิวารัตน์ 8;Muban Sivarat 8,13.7285176,100.2506221,731,1
732,ตวงธนานคร;Thung Thananakorn,13.72585683,100.252807,732,1
733,โรงเรียนยอแซฟอุปถัมภ์ (จุดที่ 2);Joseph Upatham School (Stop 2),13.71846558,100.2590204,733,1
734,ซอยวัดเทียนดัด;Soi Wat Thien Dat,13.71468829,100.2616955,734,1
735,ตรงข้ามโรงเรียนยอแซฟอุปถัมภ์;Opposite Joseph Upatham School,13.71793193,100.2589743,735,1
736,ซอยโรมัน;Soi Roman,13.72325085,100.2545487,736,1
737,หมู่บ้านสวนทิพย์;Suan Thip Village,13.72559338,100.2526333,737,1
738,ตรงข้ามหมู่บ้านสิวารัตน์ 8; Opposite Muban Sivarat 8,13.72826732,100.2503072,738,1
739,ตรงข้ามหมู่บ้านศรีสามพราน;Opposite Village Sri Sampran,13.73043293,100.2485123,739,1
740,สวนสามพราน;Rose Garden,13.73545486,100.2443236,740,1
741,ก่อนแยกพุทธมณฑลสาย 6;Yaek Phutthamonthon Sai 6,13.73927767,100.2411313,741,1
742,ปั๊มน้ำมันPURE;PT Gas Station,13.74066089,100.2400425,742,1
743,ทางเข้าวัดไร่ขิง;Wat Rai Khing,13.74096296,100.2403714,743,1
744,ตรงข้ามซอยท่าตลาด 6;Opposite Tha Talat 6,13.74254177,100.2505249,744,1
745,เจริญราษฎร์ 7 แยก 35-4;Charoen Rat 7 Intersection 35-4,13.69050961,100.5228717,745,1
746,ตรงข้ามวัดนาคปรก;Opposite Wat Nang Chi Chotikaram,13.71861603,100.4682489,746,1
747,ครัวคุณย่า;KHRUA KHUN YA,13.78877178,100.515741,747,1
748,เทพประทับ;Thep Prathap,13.78681429,100.5188545,748,1
749,ซอยบ้านกลาง 3/2;Soi Banklang 3/2,14.00397333,100.5429316,749,1
750,ตรงข้ามซอยบ้านกลาง 2/9;Soi Banklang 2/9,14.00378778,100.5488268,750,1
751,ซอยบ้านกลาง 2/7(ขาเข้า);Soi Banklang 2/7,14.00184029,100.5526792,751,1
752,ซอยบ้านกลาง 2/5(ขาเข้า);Soi Banklang 2/5,13.99631293,100.5544774,752,1
753,วัดบางกระดี่(ขาเข้า);Wat Bangkadi,13.99360798,100.5511535,753,1
754,สถาบันเทคโนโลยีนานาชาติสิรินธรม.ธรรมศาสตร์;Sirindhorn International Institute of Technology. Thammasat.,13.98151159,100.5508127,754,1
755,บางกอกกอล์ฟคลับ(ถนนติวานนท์ขาเข้า);Bangkok Golf Club,13.97845,100.5508119,755,1
756,โรงแรมปทุมธานีเพลส(ถนนติวานนท์ขาเข้า);Pathum Thani Place Hotel,13.9751741,100.5507599,756,1
757,แยกตัดทางหลวง 306;Highway 306 Intersection,13.96843452,100.5514299,757,1
758,โรงเรียนบ้านใหม่พัฒนา;Ban Mai Pattana School,13.95812312,100.5508378,758,1
759,ซอยพระแม่มหาการุณย์;Soi Phra Mae Maha Karun,13.94863365,100.5464362,759,1
760,หมู่บ้านประดับสุข;Pradapsuk Village,13.94228121,100.5431232,760,1
761,ตรงข้ามหมู่บ้านประดับสุข;Pradapsuk Village (Opposite),13.94174511,100.5425396,761,1
762,ติวานนท์-ปากเกร็ด 37;Tiwanon - Pakkret 37,13.94819773,100.5458673,762,1
763,ตรงข้ามโรงเรียนบ้านใหม่พัฒนา;Ban Mai Pattana School (Opposite),13.95809425,100.550531,763,1
764,แยกปู่โพธิ์การไฟฟ้าบางกะดี่;Poo Po Intersection PEA Pathum Thani 2 (Bang Kadi),13.96791301,100.5495394,764,1
765,โรงแรมปทุมธานีเพลส(ถนนติวานนท์ขาออก);Pathum Thani Place Hote,13.97514392,100.5505298,765,1
766,บางกอกกอล์ฟคลับ(ถนนติวานนท์ขาออก);Bangkok Golf Club,13.97828771,100.5505258,766,1
767,เทคโนโลยีนานาชาติสิรินธรม.ธรรมศาสตร์;Sirindhorn International Institute of Technology. Thammasat.,13.98155218,100.5505409,767,1
768,วัดบางกระดี่(ขาออก);Wat Bang Kradi,13.99390081,100.5509761,768,1
769,ซอยบ้านกลาง 2/5(ขาออก);Soi Banklang 2/5,13.99664137,100.5544465,769,1
770,ซอยบ้านกลาง 2/7(ขาออก);Soi Ban Klang 2/7,14.00177931,100.5525667,770,1
771,ซอยบ้านกลาง 2/9;Soi Banklang 2/9,14.00368952,100.5487557,771,1
772,แยกอรุณอัมรินทร์(บริษัทสุราบางยี่ขัน);Arun Ammarin Intersection,13.76976537,100.4866324,772,1
773,โรงเรียนสอนตัดเสื้อปรินยา;Prinya Dress Making Institute,13.77085601,100.4877793,773,1
774,ตรงข้ามวัดอมาศรี(สามกุฏิ);Wat Amasri (Opposite),13.77284127,100.4899493,774,1
775,โรงพิมพ์สยามรัฐ;Siamrath Company Limited (Printing),13.7713531,100.4932809,775,1
776,วัดอมาศรี(สามกุฏิ);Wat Amasri,13.77250652,100.4899398,776,1
777,"บริษัทกรีนแอปเปิ้ลกราฟฟิคพริ้นติ้งจำกัด;Green Apple Graphic Printing Co.,Ltd.",13.77068978,100.4880241,777,1
778,แยกอรุณอัมรินทร์(ซอยสุวิชานดำริ);Arun Ammarin Intersection,13.76953984,100.4870018,778,1
779,หมู่บ้านรุ่งกิจการ์เด้นโฮม;Rungkit Garden Home Village,13.75099082,100.746559,779,1
780,แยกสุทธิสาร (ฝั่งวิภาวดี ขาเข้า);Suthisan Intersection (Vibhavadi Side Inbound),13.78835612,100.5616695,780,1
781,ซูบารุ สุทธิสาร;Subaru Suthisan,13.78642976,100.560168,781,1
782,สนามกอล์ฟยูนิโก้;Unico Grande Golf Course,13.74590737,100.6666963,782,1
783,รพ.สงฆ์;Priest Hospital,13.76093342,100.5281054,783,1
784,โรงเรียนปทุมคงคา;Pathum Kongka School,13.71871397,100.580729,784,1
785,กำแพงเพชรวิวัฒน์ก่อสร้าง ลำลูกกา;Kamphaeng Phet Wiwat Construction Lam Luk Ka,13.9333979,100.7030001,785,1
786,ตรงข้ามชัยบูรณ์บราเดอร์ส;Opposite Chai Bun Brothers,13.93322111,100.699258,786,1
787,วัดคลองชัน; Wat Khlong San,13.93284798,100.6896179,787,1
788,แยกลำลูกกาคลอง 4;Yaek Lam Luk Ka Khlong 4,13.9326482,100.684661,788,1
789,หมู่บ้านเอราวัณ ลำลูกกา;Muban Erawan Lamlukka,13.93259527,100.6768311,789,1
790,ตรงข้ามหมู่บ้านลัลลี่วิลล์;Lully Ville Village (Opposite),13.93214079,100.6724048,790,1
791,ตรงข้ามหมู่บ้านดีไลท์ วงแหวน-วัชรพล; Opposite Delight Village Wongwaen-Watcharaphon,13.9318548,100.6644455,791,1
792,ตรงข้ามซอยเปียร์นนท์;Opposite Soi Pianon,13.93189362,100.6607337,792,1
793,ตรงข้ามซอยสุนีย์;Opposite Soi Sunee,13.93206394,100.6539086,793,1
794,BTS คูคต (ทางออก 2);BTS Khu Khot Station (Exit 2),13.93229825,100.6448641,794,1
795,โรงเรียนระเบียบวิทยา;Rabiap Witthaya School,13.93643069,100.6415685,795,1
796,วัดโพสพผลเจริญ;Wat Phosop Phoncharoen,13.93921251,100.641848,796,1
797,ตรงข้ามเทศบาลเมืองคูคต;Opposite Khu Khot City Municipality,13.94256306,100.642189,797,1
798,ตรงข้ามโลตัสลำลูกกาคลอง 2;Opposite Tesco Lotus Lam Luk Ka Khlong 2,13.94791077,100.6427152,798,1
799,หมู่บ้านชัชวาลวงศ์;Muban Chatchawan Wong,13.94916182,100.6428422,799,1
800,ชุมชนจามรร่วมใจสามัคคี;Chumchon Chamon Ruamchai Samakkhi,13.95061174,100.6338148,800,1
801,ซอยวัดลาดสนุ่น;Soi Wat Lat Sanun,13.95176996,100.6300024,801,1
802,ตรงข้ามสนามธูปะเตมีย์;Opposite Dhupateme Royal Thai Air Force Sports Stadium,13.94954142,100.6260887,802,1
803,กองบัญชาการกองทัพอากาศไทย;Royal Thai Air Force,13.91989878,100.6229483,803,1
804,ตลาดสดศิริชัยซอย 3;Sirichai Market Soi 3,13.67336328,100.4260241,804,1
805,ตลาดสดศิริชัยซอย 15;Sirichai Market Soi 15,13.67249202,100.4264788,805,1
806,ศาลเจ้าแม่ตะเคียนทอง;Chao Mae Takianthong Shrine,13.67058187,100.4275412,806,1
807,สถานีรถไฟบางบอน;Railway Station Bang Bon,13.6665952,100.428446,807,1
808,ตรงข้ามซอยม่วงสกุล;Soi Muang Sakun (Opposite),13.66403861,100.4289741,808,1
809,ซอยเพชรเกษม 27/1;Soi Phet Kasem 27/1,13.7176755,100.4524936,809,1
810,ซอยกิ่งแก้ว 1;Soi King Kaew 1,13.6386945,100.711536,810,1
811,"ตรงข้ามบริษัทโกลบอลคอนเน็กชั่นส์;Global Connections Public Co., Ltd. (Opposite)",13.65154075,100.7151747,811,1
812,ปั๊มน้ำมันเอสโซ่;Esso Gas Station,13.66847283,100.7200782,812,1
813,ตรงข้าวซอยกิ่งแก้ว 34;Soi King Kaew 34 (Opposite),13.67268106,100.7212158,813,1
814,ซอยวัดกิ่งแก้ว;Soi Wat King Kaew,13.67502562,100.7217395,814,1
815,หน้าร้านอาหารเดอะเวอร์จิ้น;The Virgin Restaurant,13.69479659,100.7307568,815,1
816,โรงแรมแกรนด์อินคำ(ถนนกิ่งแก้วขาเข้า);Grand Inn Come Hotel,13.69948982,100.7326999,816,1
817,หน้าหมู่บ้านทองธาพีทีเฮาส์กิ่งแก้ว;Thongtha PT House Kingkaew Village,13.70284433,100.7341234,817,1
818,หมู่บ้านจามจุรี;Jamjuri Village,13.70671716,100.735946,818,1
819,สนามปั่นจักรยานเจริญสุขมงคลจิต;Opposite Happy and Healthy Bike Lane,13.71240071,100.7759644,819,1
820,สภ.สุวรรณภูมิ / สภ.ราชาเทวะ;Suvarnabhumi / Rachathewa Police Station,13.71314528,100.7758369,820,1
821,ตรงข้ามหมู่บ้านจามจุรี;Jamjuri Village (Opposite),13.70653491,100.7362214,821,1
822,หมู่บ้านพาร์ควิวซีตี้;Park Ville City Village,13.70229789,100.7342798,822,1
823,โรงแรมแกรนด์อินคำ(ถนนกิ่งแก้วขาออก);Grand Income Hotel,13.69982824,100.7332163,823,1
824,"บริษัทเอ็นเอสเคแบริ่งส์(ประเทศไทย)จำกัด;NSK Bearings (Thailand) CO.,TH",13.69469351,100.7311121,824,1
825,ตรงข้ามปั๊มน้ำมันดาวกิ่งแก้ว;Dao King Kaeo Gas Station (Opposite),13.68896278,100.728682,825,1
826,ซอยกิ่งแก้ว 38;Soi King Kaeo 38,13.67498145,100.7221073,826,1
827,ซอยกิ่งแก้ว 21;Soi King Kaeo 21,13.66729727,100.7200842,827,1
828,ซอยกิ่งแก้ว 14/1;Soi King Kaeo 9,13.650306,100.7151062,828,1
829,การบินไทยสุวรรณภูมิ (ตึกปฏิบัติการภาคพื้นดิน) (จุดที่3);Suvarnabhumi (Tg Ground Operation Control Center) ,13.71170319,100.7604754,829,1
830,วิทยาลัยราชสุดา ;Ratchasuda College,13.78730849,100.324643,830,1
831,ตรงข้ามวัดหทัยนเรศวร;Wat Hathai Naresuan (Opposite),13.78691776,100.3138317,831,1
832,"แยกบรมฯ-พุทธมณฑลสาย 5 (ขาออก);Yaek Borom, Phutthamonthon Sai 5 (Outbound)",13.78652146,100.3035414,832,1
833,ม.รามคำแหง 2 (ประตู 1);Ramkhamhaeng University 2 (Gate 1),13.66891032,100.6839492,833,1
834,รามคำแหง 2 ซอย 19;Ram Kham Hang 2 Soi 19,13.67018499,100.6843817,834,1
835,หมู่บ้านรัตนโกสินทร์ 200 ปี;Rattanakosin 200 years Village,13.98735799,100.6083298,835,1
836,รพ.ราชวิถี 2 (รังสิต);Rajavithi 2 Hospital,13.97481776,100.6182765,836,1
837,โชคชัยรังสิต;Chokchai Rangsit,13.96926485,100.6192575,837,1
838,รพ.แพทย์รังสิต;Pat Rangsit Hospital,13.9637513,100.6202758,838,1
839,เซียร์รังสิต;Zeer Rangsit,13.9600652,100.6209264,839,1
840,หมู่บ้านฝนทอง;Fon Thong Village,13.8832268,100.6014008,840,1
841,พหลโยธิน กม.26;Phahonyothin km.26,13.93361286,100.6255863,841,1
842,ก่อนแยกลำลูกกา;Before Lamlukka Junction,13.94964259,100.6222736,842,1
843,ตรงข้ามเซียร์รังสิต;Opposite Zeer Rangsit,13.96030867,100.6202491,843,1
844,ตลาดสี่มุมเมือง;Simummuang Market,13.96250272,100.6198588,844,1
845,วัดประยูรธรรมาราม;Wat Prayoon Thamaram,13.96526216,100.6193319,845,1
846,เมืองเอก;Muang Ake,13.96964808,100.6185721,846,1
847,แม็คโครรังสิต;Makro Rangsit,13.97466109,100.617645,847,1
848,ตลาดรังสิต;Rangsit Market,13.98769317,100.6129781,848,1
849,รพ.ปทุมเวช;Pathumvech Hospital,13.98761118,100.6097497,849,1
850,หมู่บ้านภาสกร 2;Phatsakon 2 Village,13.63379501,100.3663356,850,1
851,ตรงข้ามซอยเอกชัย 133;Soi Ekachai 133 (Opposite),13.63776528,100.3708564,851,1
852,ถนนบางบอน 4;Bang Bon 4 Road,13.64158979,100.375529,852,1
853,วิทยาลัยเทคนิคราชสิทธาราม;Rajasitharam Technical College,13.64666263,100.3818934,853,1
854,หน้าเรือนจำหญิงธนบุรี;Thonburi Women Prison,13.6485777,100.3843401,854,1
855,ซอยเอกชัย 104;Soi Ekachai 104,13.65214472,100.3889914,855,1
856,ซอยเอกชัย 106;Soi Ekachai 106,13.6576568,100.3961484,856,1
857,หมู่บ้านแก้วกาญจน์;Kaew Karn Village,13.6590847,100.3986722,857,1
858,โรงเรียนบ้านนายสี;Ban Nai Si School,13.66018195,100.4006412,858,1
859,วัดนครอินทร์ตรงข้ามบ้านมิตรภาพ;Wat Nakhon In,13.83549907,100.501908,859,1
860,หลังต่างระดับบรมฯ - ราชพฤกษ์;After Borom - Ratchaphruek Interchange,13.77806131,100.4434295,860,1
861,หมู่บ้านพลีโน่ เอกชัย-กาญจนาภิเษก;Pleno Ekachai-Kanchanapisek Village,13.65797688,100.3972313,861,1
862,ซอยเอกชัย 101;Soi Ekachai 101,13.65523039,100.3932615,862,1
863,ตรงข้ามบ้านพักกรมราชองครักษ์ บางบอน;Opposite Royal Thai Aide-De-Camp Department Housing Bangbon,13.65193241,100.3890262,863,1
864,ก่อนแยกบางบอน 3;Before Bang Bon 3 Junction,13.65063546,100.3873704,864,1
865,โชว์รูมเอทีฮอนด้า เอกชัย-บางบอน;AT Honda Showroom Ekachai-Bangbon,13.64432219,100.3793876,865,1
866,หมู่บ้านวโรชา;Varocha Village,13.64144073,100.3758214,866,1
867,ซอยเอกชัย 133;Soi Ekachai 133,13.63754621,100.3710129,867,1
868,สำนักงานเขตบางบอน;Bang Bon District Office,13.63537152,100.36848,868,1
869,ตรงข้ามโรงเรียนศึกษานารีวิทยา (ศึกษานารี 2);Opposite Suksanareewittaya School (Suksanaree 2),13.63415979,100.3670369,869,1
870,หลังสะพานรังสิตคลอง 3;Behind Rangsit Khlong 3 Bridge,13.99458652,100.662269,870,1
871,หมู่บ้านสิวลี รังสิต 1;Siwalee Village Rangsit 1,13.99160201,100.6490779,871,1
872,ก่อนสะพานรังสิตคลอง 2;Before Rangsit Klong 2 Bridge,13.99052244,100.6448741,872,1
873,หมู่บ้านบ้านฟ้า;Ban Fa Village,13.9893941,100.6397605,873,1
874,สะพานแดงรังสิต;Rangsit Daeng Bridge,13.98626939,100.6255432,874,1
875,ตรงข้ามซอยรังสิต-นครนายก 5;Soi Rangsit-Nakhon Nayok 5 (Opposite),13.98543487,100.6216549,875,1
876,ตรงข้ามฟิวเจอร์พาร์ครังสิต (จุดที่ 2);Opposite Future Park Rangsit (point 2),13.98971292,100.6149619,876,1
877,ฟิวเจอร์ปาร์ครังสิต;Future Park Rangsit,13.99075996,100.6155088,877,1
878,เมเจอร์รังสิต;Major Rangsit,13.98730995,100.6161416,878,1
879,หมู่บ้านศิษฐิโรจน์;Sitthirot Village,13.96569617,100.6198693,879,1
880,อนุสรณ์สถานแห่งชาติ;Thai National Memorial,13.95221411,100.6198976,880,1
881,พรมไทยปิง;Prom Thai Ping,13.94927954,100.6182725,881,1
882,"หมู่บ้านพิพรพงษ์ 2,3,4;Piphonpong Village",13.94686478,100.6169014,882,1
883,หมู่บ้านศุภลักษณ์;Supalak Village,13.94422668,100.6154291,883,1
884,ฐานทัพอากาศดอนเมือง;Don Muang Royal Thai Air Force Base,13.9396569,100.6128387,884,1
885,ตรงข้าม สน.ดอนเมือง (ฝั่งวิภาวดี);Opposite Don Mueang Police Station (Vibhavadi Side),13.93048093,100.6075833,885,1
886,ฝ่ายช่างการบินไทย ดอนเมือง;Thai Airways Engineer Department,13.92749495,100.6059104,886,1
887,ตรงข้ามวัดดอนเมือง (ฝั่งวิภาวดี);Opposite Wat Don Muang (Vibhavadi side),13.92196446,100.6027901,887,1
888,สนามบินดอนเมือง;Don Muang Airport,13.9200784,100.6017494,888,1
889,ตรงข้ามตลาดใหม่ดอนเมือง (ฝั่งวิภาวดี);Opposite Talad Mai Donmueang (Vibhavadi side),13.91411847,100.598397,889,1
890,ตรงข้ามคลังน้ำมันดอนเมือง;Opposite BASF Donmueang,13.90505782,100.5933446,890,1
891,เจ้เล้ง;Jae Leng Shop,13.89647763,100.5889698,891,1
892,ตรงข้ามวัดหลักสี่;Opposite Wat Laksi,13.88685623,100.5835078,892,1
893,เซียงกงหลักสี่;Sieng Kong Lak Si,13.8825367,100.5810594,893,1
894,หนังสือพิมพ์แนวหน้า;Naewna Newspaper,13.87835657,100.5786991,894,1
895,โรงเรียนไผทอุดมศึกษา;Pathaiudom School,13.87609913,100.5774051,895,1
896,โรงแรมรามากาเด้นซ์;Rama Gardens Hotel,13.86358173,100.5705374,896,1
897,หนังสือพิมพ์เดลินิวส์;Daily News,13.86103653,100.5692212,897,1
898,โรงแรมมิราเคิล แกรนด์ คอนเวนชั่น;Miracle Grand Convention Hotel,13.87645605,100.5767912,898,1
899,สถาบันวิจัยจุฬาภรณ์;Chulabhorn Research Institute,13.87903004,100.5782879,899,1
900,สถานีรถไฟหลักสี่;Laksi Train Station,13.8834131,100.580792,900,1
901,ไอทีสแควร์ หลักสี่;IT Square Laksi,13.88552481,100.5819722,901,1
902,วัดหลักสี่;Wat Laksi,13.88899053,100.5838422,902,1
903,เคหะทุ่งสองห้อง;Thung Song Hong Housing,13.89829254,100.5891486,903,1
904,คลังน้ำมันดอนเมือง;Don Mueang Oil Terminal,13.90584984,100.5933101,904,1
905,ตลาดใหม่ดอนเมือง (ฝั่งวิภาวดี);Don Mueang New Market (Vibhavadi side),13.91421664,100.5980491,905,1
906,วัดดอนเมือง  (ฝั่งวิภาวดี);Wat Don Mueang (Vibhavadi side),13.92218017,100.6023913,906,1
907,สโมสรท่าอากาศยาน (ฝั่งวิภาวดี);Airport Club (Vibhavadi side),13.92759465,100.6055618,907,1
908,สน.ดอนเมือง (ฝั่งวิภาวดี);Don Muang Police Station (Vibhavadi side),13.93152315,100.6077441,908,1
909,หมู่บ้านอยู่เจริญ;Yu Charoen Village,13.94160852,100.6133245,909,1
910,โรงเรียนพหลโยธิน (พ่วงเจริญอุปถัมภ์);Phahon Yothin School (Puang Charoen Upatham School),13.94698183,100.6163549,910,1
911,หมู่บ้านวังทอง;Wang Thong Village,13.95148893,100.6188693,911,1
912,หมู่บ้านชีวรมย์ รังสิต-ดอนเมือง;Chewarom Rangsit-Don Mueang Village,13.98576618,100.6219928,912,1
913,ตรงข้ามสะพานแดงรังสิต;Opposite Rangsit Daeng Bridge,13.98666572,100.6258803,913,1
914,หมู่บ้านสนาวิลล่า 91;Sana Villa Village 91,13.98847454,100.6341541,914,1
915,หมู่บ้านมาลีวัลย์เฮ้าส์;Maleewan House Village,13.98943899,100.6385194,915,1
916,หลังสะพานรังสิตคลอง 2; Behind Rangsit Khlong 2 Bridge,13.99104397,100.6456041,916,1
917,"หมู่บ้านมัณฑนา 1 รังสิตคลอง 2 ;Manthana Village 1, Rangsit Khlong 2",13.99207129,100.6497611,917,1
918,หมู่บ้านอยู่เจริญ รังสิตคลอง 2;Yoo Charoen Rangsit Klong 2 Village,13.99285219,100.6525889,918,1
919,มหาวิทยาลัยเทคโนโลยีราชมงคลธัญบุรี;Rajamangala University of Technology Thanyaburi,14.03447914,100.7320049,919,1
920,โรงพยาบาลธัญบุรี;Thanyaburi Hospital,14.02074934,100.7321023,920,1
921,มหาวิทยาลัยอีสเทิร์นเอเชีย;Eastern Asia University,14.01525595,100.7231033,921,1
922,"พี.พี.เอส.เซฟตี้กลาส;P.P.S. Safety Glass Co., Ltd.",14.01214839,100.7157954,922,1
923,หมู่บ้านบ้านฟ้ารังสิต คลอง 4;Ban Fah Rangsit Village Khlong 4,14.00287763,100.694201,923,1
924,หมู่บ้านสินทรัพย์;Sinsub Rangsit Village,14.00213092,100.6924275,924,1
925,ก่อนสะพานรังสิตคลอง 4 (จุดที่ 1);Before Rangsit Khlong 4 Bridge (Stop 1),14.0008585,100.6895203,925,1
926,ตรงข้ามซอยรังสิต-นครนายก 77;Opposite Soi Rangsit-Nakhon Nayok 77,13.9990404,100.6828473,926,1
927,ตรงข้ามโลตัสรังสิต-นครนายก;Opposite Lotus Rang Sit - Nakhon Nayok,13.99859431,100.6809421,927,1
928,ตรงข้ามวัดเขียนเขต;Opposite Wat Khian Khet,13.99786736,100.6778961,928,1
929,ดรีมเวิลด์;Dream World,13.99713109,100.6745001,929,1
930,เทศบาลเมืองบึงยี่โถ;Bueng Yitho Municipality,13.99569713,100.66799,930,1
931,ซอยสะอาดวัฒนา;Soi Sa-at Watthana,13.99578422,100.6666538,931,1
932,ม.นอร์ทกรุงเทพ;North Bangkok University,13.99732892,100.6737668,932,1
933,วัดเขียนเขต;Wat Kiean Ket,13.99825007,100.6777939,933,1
934,โลตัสรังสิต-นครนายก;Lotus Rang Sit - Nakhon Nayok,13.99910951,100.6813776,934,1
935,ตรงข้ามถนนพระองค์เจ้าสาย;Opposite Phra Ong Chao Sai Road,13.99991248,100.6852386,935,1
936,หมู่บ้านแพรมาพร;Muban Praemaporn,14.00369535,100.6952294,936,1
937,ตรงข้ามวัดมูลจินดาราม;Wat Mool Jindaram (Opposite),14.00932984,100.7084846,937,1
938,หมู่บ้านคลอง 5;Klong 5 Village,14.01353876,100.7182067,938,1
939,ตรงข้ามมหาวิทยาลัยอีสเทิร์นเอเชีย;Eastern Asia University (Opposite),14.01557668,100.7231089,939,1
940,มทร.ธัญบุรี(ขาออก);Rajamangala University of Technology Thanyaburi (De[arture),14.0344428,100.7318437,940,1
941,โรงเรียนสทราวดี(ซอยศาลาต้นจันทร์);Satrawadee School,13.75486574,100.4836532,941,1
942,วัดระฆังโฆสิตาราม;Wat Rakungkositaram,13.75328143,100.4836805,942,1
943,แฟลตกรมอู่ทหารเรือ;Royal Thai Naval Dockyard Flat,13.75164066,100.4837086,943,1
944,กรมพลาธิการทหารเรือ;Naval Supply Department,13.7478907,100.4843997,944,1
945,วัดเครือวัลย์วรวิหาร;Wat Khruea Wan Worawihan,13.74595888,100.4853337,945,1
946,วัดอรุณราชวรารามราชวรมหาวิหาร;Wat Arun Ratwararam Ratchaworamahawihan,13.74401605,100.4864894,946,1
947,ตรงข้ามกรมช่างโยธาทหารเรือ;Opposite Naval Public Works Department,13.74127371,100.4857313,947,1
948,บ้านหม้อ;Ban Mo,13.7462429,100.4994524,948,1
949,วัดบวรนิเวศฯ (ฝั่งพระสุเมรุ);Wat Bowonniwet (Phra Sumen side),13.76044109,100.5007798,949,1
950,วัดบวร;Wat Bawon,13.76074299,100.5002881,950,1
951,หลังแยกบางลำพู;Behind Bang Lamphu intersection,13.76266953,100.497402,951,1
952,ท่าพระอาทิตย์;Tha Phra Athit,13.76282513,100.4942849,952,1
953,ก่อนแยกบางลำพู;Before Banglumphu Intersection,13.76269721,100.4975802,953,1
954,สน.สำราญราษฎร์;Samran Rat Police Station,13.7520419,100.5028369,954,1
955,ตรงข้ามโรงเรียนสวนกุหลาบวิทยาลัย;Opposite Suankularb Wittayalai School,13.74332038,100.4990483,955,1
956,ตรงข้าม สน.บางกอกใหญ่;Opposite Bangkok Yai Metropolitan Police Station,13.74183895,100.4866722,956,1
957,กรมอู่ทหารเรือ;Naval Dockyard Department,13.7447174,100.4858923,957,1
958,ตรงข้ามวัดเครือวัลย์วรวิหาร;Wat Khruea Wan Worawihan (Opposite),13.74593323,100.4851532,958,1
959,วัดพระยาทำ;Wat Phraya Tham,13.74857441,100.4839696,959,1
960,ตลาดใหม่บ้านขมิ้น;Baan Kamin New Market,13.75163987,100.483514,960,1
961,ตรงข้ามวัดระฆังโฆสิตาราม;Wat Rakungkositaram (Opposite),13.75332083,100.4834431,961,1
962,โรงเรียนสุภัทราวดี;Supattarawadee School,13.75429215,100.4834611,962,1
963,กระทรวงพาณิชย์;Ministry Of Commerce,13.88186195,100.4873538,963,1
964,ธนาคารกรุงเทพรัตนาธิเบศร์;Bangkok Bank Rattanathibet,13.86659901,100.4934716,964,1
965,ซอยศรีบูรพา 21;Soi Sri Burapha 21,13.77345026,100.6538505,965,1
966,ซอยศรีบูรพา 19;Soi Sri Burapha 19,13.77427634,100.6534458,966,1
967,ซอยศรีบูรพา 15;Soi Sri Burapha 15,13.77779918,100.6520739,967,1
968,ศรีบูรพา 8;Sri Burapha 8,13.78079278,100.6501167,968,1
969,ซอยศรีบูรพา 6;Soi Sri Burapha 6,13.7817239,100.649495,969,1
970,ซอยศรีบูรพา 1;Soi Sri Burapha 1,13.78341734,100.6481018,970,1
971,ซอยโพธิ์แก้ว 7;Soi Pho Kaew 7 ,13.80122164,100.6458602,971,1
972,ซอยโพธิ์แก้ว 1;Soi Pho Kaeo 1,13.80058357,100.6435533,972,1
973,ซอยโพธิ์แก้ว 5;Soi Pho Kaeo 5,13.79984602,100.6404017,973,1
974,ซอยโพธิ์แก้ว 4;Soi Pho Kaew 4,13.79957954,100.6382019,974,1
975,ตรงข้ามสนามฟุตบอลพรรษกาล;Krua Tanu (Opposite),13.79925221,100.6355626,975,1
976,แยกตาชั่ง(โพธิ์แก้ว3);Tachang Intersection,13.80027483,100.633906,976,1
977,แยกตาชั่ง;Tachang Intersection,13.80029814,100.6342574,977,1
978,สนามฟุตบอลพรรษกาล;Phansakarn Football Field,13.79934598,100.6349976,978,1
979,ตรงข้ามสนามฟุตบอลซอยโพธิ์แก้ว;Soccer Field Soi Pho Kaew,13.79970284,100.6383437,979,1
980,หมู่บ้านยลประภา;Yolprapha Village,13.80030963,100.6420927,980,1
981,ตรงข้ามซอยโพธิ์แก้ว 7;Soi Pho Kaew 7 (Opposite),13.80158232,100.6465562,981,1
982,"ซอยศรีบูรพา 3,ทะเลสาบที่1;Soi Sri Burapha 3, Lake 1",13.78306133,100.6486073,982,1
983,ตรงข้ามซอยศรีบูรพา 4;Opposite Soi Sri Burapha 4,13.78222358,100.6492834,983,1
984,ตรงข้ามซอยศรีบูรพา 8;Soi Sri Burapha 8 (Opposite),13.78087966,100.6502709,984,1
985,ตรงข้ามซอยศรีบูรพา 14;Opposite Soi Sri Burapha 14,13.77816156,100.6520188,985,1
986,ตรงข้ามซอยศรีบูรพา 18;Opposite Soi Sri Burapha 18,13.77560607,100.653238,986,1
987,ตรงข้ามซอยศรีบูรพา 21;Opposite Soi Sri Burapha 21,13.77386279,100.6537633,987,1
988,หมู่บ้านมณียาตรงข้ามก๋วยเตี๋ยวนายหมอก;Maneeya Village,13.86645083,100.4943257,988,1
989,โรงเรียนอนุราชประสิทธิ์;Anurat Prasit School,13.87278722,100.4955858,989,1
990,ตรงข้ามวัดชมภูเวก;Opposite Wat Chomphu Wek,13.88312689,100.4935541,990,1
991,ตลาดจิตรเจริญ;Jitcharoen Market,13.88446409,100.4910251,991,1
992,ตรงข้ามกระทรวงพาณิชย์;Ministry of Commerce (Opposite),13.8816738,100.4874992,992,1
993,ตรงข้ามวัดช่องนนทรี (ฝั่งพระราม 3);Opposite Wat Chong Nonsi (Rama 3 side),13.69265066,100.5476196,993,1
994,ตรงข้ามหัวปลาช่องนนทรี;Opposite Hua Pla Chong Nonsi,13.69059798,100.5476971,994,1
995,หัวปลาช่องนนทรี;Huapla Chong Nonsi,13.68884599,100.54742,995,1
996,วัดช่องนนทรี (ฝั่งพระราม 3);Wat Chong Nonsi (Rama 3 side),13.69314361,100.547135,996,1
997,ก่อนแยกลาซาล;Before Lasan Intersection,13.66196539,100.6020159,997,1
998,ตรงข้ามกรมอุตุนิยมวิทยา;Opposite the Meteorological Department,13.66699834,100.6040925,998,1
999,ซอยสุขุมวิท 56;Soi Sukhumwit 56,13.70177097,100.6027571,999,1
1000,ท้องฟ้าจำลอง;Science Center for Education,13.7207816,100.5832024,1000,1
1001,ซอยสุขุมวิท 40;Soi Sukhumwit 40,13.72226318,100.5811249,1001,1
1002,"BTS ทองหล่อ (ทางออก 2,4);BTS Thonglo (Exit 2,4)",13.72415387,100.578478,1002,1
1003,ซอยสุขุมวิท 34;Soi Sukhumwit 34 ,13.72569782,100.5762513,1003,1
1004,สถานฑูตฟิลิปปินส์;Embassy Of The Philippines,13.728655,100.5721312,1004,1
1005,BTS พร้อมพงษ์ (ทางออก4);BTS Phromphong (Exit 4),13.73008376,100.5700319,1005,1
1006,ซอยสุขุมวิท 20;Soi Sukhumwit 20,13.73420036,100.5641936,1006,1
1007,ซอยสุขุมวิท 18;Soi Sukhumwit 18,13.73487189,100.5632206,1007,1
1008,ตรงข้ามโรงแรมไฮแอทรีเจนซี กรุงเทพ สุขุมวิท;Opposite Hyatt Regency Bangkok Sukhumvit,13.73941041,100.5568223,1008,1
1009,BTS นานา (ทางออก 2);BTS Nana (Exit 2),13.74086776,100.5547601,1009,1
1010,เพลินจิตเซ็นเตอร์;Ploenchit Center,13.74244771,100.5514362,1010,1
1011,"ท่ารถคลองคูเมืองเดิม (สาย 2 25 508);Old Khu Mueang Bus Terminal (Line 2,25,508)",13.74889195,100.4962038,1011,1
1012,พระบรมมหาราชวัง;Grand Palace,13.74938782,100.4939084,1012,1
1013,BTS เพลินจิต (ทางออก 3);BTS Ploenchit (Exit 3),13.74311889,100.5494598,1013,1
1014,"อาคารแปซิฟิคเฟลล์,สุขุมวิทซอย7;Pacific Building, Sukhumwit Soi 7",13.7406922,100.5554258,1014,1
1015,ตรงข้ามเอ็มสเฟียร์;Opposite Emsphere,13.73283911,100.5665309,1015,1
1016,ตรงข้ามสวนเบญจศิริ;Benjasiri Park (Opposite),13.73157337,100.5683058,1016,1
1017,เอ็มควอเทียร์;Emquartier,13.73106921,100.5689856,1017,1
1018,ซอยสุขุมวิท 34;Soi Sukhumvit 34,13.72591011,100.5762868,1018,1
1019,BTS ทองหล่อ (ทางออก 1);BTS Thonglo (Exit 1),13.72449895,100.5783066,1019,1
1020,ซอยสุขุมวิท 40(ยูเนสโก้);Soi Sukhumvit 40 (Unesco),13.72261889,100.5809422,1020,1
1021,เมเจอร์เอกมัย;Major Ekamai,13.72103207,100.5832632,1021,1
1022,BTS อุดมสุข (ทางออก 5);BTS Udomsuk (Exit 5),13.68004887,100.6097389,1022,1
1023,บริษัทไทยโภชนา(ขาเข้า);Thai Phochana Company,13.54793473,100.5722222,1023,1
1024,ตรงข้ามไปรษณีย์พระสมุทรเจดีย์;Opposite Phra Samut Chedi Post Office,13.59452814,100.5790307,1024,1
1025,โรงเรียนป้อมนาคราชสวาทยานนท์;Pomnakarachsawatyanon school,13.59620879,100.5822953,1025,1
1026,ไปรษณีย์พระสมุทรเจดีย์;Phra Samut Chedi Post Office,13.59422085,100.5791175,1026,1
1027,หมู่บ้านร่มเย็นนิเวศน์;Romyen Niwet Village,13.5932813,100.5677425,1027,1
1028,ซอยท่าทราย;Soi Tha Sai,13.59539388,100.5635556,1028,1
1029,ซอยสุขสวัสดิ์ 92;Soi Suksawat 92,13.60198301,100.5576276,1029,1
1030,หมวดการทางพระสมุทรเจดีย์;Phra Samut Chedi Highway Station,13.60587792,100.554164,1030,1
1031,ตลาดคู่สร้าง;Khu Sang Market,13.60989569,100.5504779,1031,1
1032,วัดชังเรือง;Wat Chungrueng,13.61462171,100.5461527,1032,1
1033,วัดชมนิมิตร;Wat Chomnimit,13.62636141,100.5355359,1033,1
1034,ศูนย์อีซูซุ(ตรงข้ามซอยอายิโนโมโต๊ะ);Isuzu Center,13.64337374,100.5249049,1034,1
1035,ซอยสุขสวัสดิ์ 64;Soi Suk Sawat 64,13.64931775,100.5225837,1035,1
1036,ตลาดไทยสมบูรณ์;Thai somboon Market,13.65452987,100.5204804,1036,1
1037,ซอยวัดกลางนา;Soi Wat Klang Na,13.66030691,100.5181639,1037,1
1038,บิ๊กซีสุขสวัสดิ์;Big C Suk Sawat,13.65317532,100.5213812,1038,1
1039,ซอยสุขสวัสดิ์ 39/1;Soi Suk Sawat 39/1,13.6490311,100.5230177,1039,1
1040,ซอยอายิโนโมโต๊ะ;Soi A Yi No Mo To,13.64365217,100.5252459,1040,1
1041,โรงเรียนศิริวิทยา;Siriwitthaya School,13.62192894,100.5398986,1041,1
1042,ตรงข้ามวัดชังเรือง;Wat Changrueng (Opposite),13.61500834,100.5462628,1042,1
1043,ตรงข้ามตลาดคู่สร้าง;Opposite Khu Sang Market,13.61071773,100.5501657,1043,1
1044,สถานีตำรวจภูธรพระสมุทรเจดีย์;Police Station Phra Samut Chedi,13.60729559,100.5532747,1044,1
1045,ซอยอมรา;Soi Amara,13.60203455,100.5580497,1045,1
1046,ตรงข้ามซอยท่าทราย;Soi Tha Sai (Opposite),13.59573362,100.5636616,1046,1
1047,ตรงข้ามซอยร่มเย็น;Soi Romyen (Opposite),13.59358072,100.5676161,1047,1
1048,บริษัทไทยโภชนา(ขาออก);Thaiphochana Company,13.54948304,100.5721856,1048,1
1049,กรมทางหลวง;Department Of Highway ,13.7623033,100.5243306,1049,1
1050,หลังแยกเสาวนี;After Saowani Intersection,13.76175478,100.5224554,1050,1
1051,หลังแยกยมราช;After Yommarat Intersection,13.75859456,100.5210425,1051,1
1052,ก่อนแยกยมราช;Before Yommarat Intersection,13.75838038,100.5211524,1052,1
1053,พุทธมณฑลสาย 2 ซอย 29;Phutthamonthon Sai 2 Soi 29,13.79011295,100.3943578,1053,1
1054,ก่อนแยกเสาวนี;Before Saowani Intersection,13.76187713,100.52239,1054,1
1055,กระทรวงการต่างประเทศ;Ministry of Foreign Affairs,13.76259444,100.5242506,1055,1
1056,ก่อนแยกเรวดี เลี่ยงเมืองนนทบุรี; Before Yaek Rewadi,13.85794351,100.4929561,1056,1
1057,หมู่บ้านเรวดี 3 ;Rawadee 3 ,13.85133835,100.4998586,1057,1
1058,วัดพระแก้ว(ท่าช้าง);Wat Phra Kaew (Tha Chang Pier),13.75230818,100.489818,1058,1
1059,ท่ามหาราช;Maharaj Pier,13.7542394,100.4894763,1059,1
1060,ท่าพระจันทร์;Tha Phra Chan ,13.75564109,100.4895262,1060,1
1061,ตรงข้ามท่าพระจันทร์;Opposite Tha Phra Chan,13.75607531,100.4901307,1061,1
1062,ท่าราชวงศ์;Ratchawong Pier,13.73900468,100.5045225,1062,1
1063,รพ.หัวเฉียว;Hua Chieaw Hospital,13.7502667,100.5136644,1063,1
1064,ยศเส;Yossae,13.74942647,100.5159664,1064,1
1065,สถานทูตเกาหลี;Embassy of Korea,13.76748085,100.5771517,1065,1
1066,ศูนย์วัฒนธรรมแห่งประเทศไทย;Thailand Cultural Center,13.76785931,100.5747464,1066,1
1067,โรงแรมปีบอิน 2;Peep In 2 Hotel,13.76671279,100.5824175,1067,1
1068,สถานีดับเพลิงห้วยขวาง;Huai Khwang Fire Station,13.77747755,100.57051,1068,1
1069,คิคูยา สำเพ็ง;Kikuya Sum Peng,13.7413978,100.5063334,1069,1
1070,ลุมพินีเพลส นราธิวาส - เจ้าพระยา;Lumpini Place Narathiwat - Chao Phraya,13.6827207,100.5481678,1070,1
1071,สมาคมเตชะสัมพันธ์;Techa Samphan Association,13.68095097,100.5478773,1071,1
1072,วัดคลองภูมิ;Wat Klong Phoom,13.67656786,100.5458697,1072,1
1073,ตรงข้ามวัดคลองใหม่;Wat Klong Mai (Opposite),13.67526832,100.5448869,1073,1
1074,ธนาคารกรุงศรีอยุธยาพระราม3;Krungsri Bank (Rama 3),13.67420172,100.5435107,1074,1
1075,เอสวี ซิตี้;SV City,13.67318644,100.5417484,1075,1
1076,วัดด่าน;Wat Darn,13.67291778,100.5404698,1076,1
1077,โรงเรียนเจ้าพระยาวิทยาคม;Chao Phraya Witthayakhom School,13.67369843,100.535988,1077,1
1078,วัดปริวาส;Wat Pariwas,13.67437617,100.5345022,1078,1
1079,โรงปูน;Cement Plant,13.67534175,100.5329834,1079,1
1080,ก่อนแยกสาธุประดิษฐ์;Before Sathu Pradit Intersection,13.67816857,100.5296804,1080,1
1081,ไลอ้อน;lion,13.68138546,100.5263488,1081,1
1082,ตรงข้ามไอซีซี;ICC (Opposite),13.68346011,100.5236433,1082,1
1083,ริดวอร์ไซด์วิลล่า;Riverside Villa,13.68760937,100.516514,1083,1
1084,วัดบางโคล่นอก;Wat Bang Kho Nok,13.6886441,100.5133436,1084,1
1085,ก่อนเเยกเจริญราษฎร์;Before Jaroenrat Intersection,13.68924602,100.5111564,1085,1
1086,โรงแรมมณเฑียรริเวอร์ไซด์;Monthien  Hotel,13.68950235,100.5078849,1086,1
1087,ตรงข้ามทรี ออน ธรี;Opposite Tree On 3,13.68995347,100.5044062,1087,1
1088,วัดจันทร์นอก;Wat Chan Nok,13.69145209,100.5021268,1088,1
1089,วัดอินทร์บรรจง;Wat Inbunjong,13.69300445,100.5006697,1089,1
1090,ก่อนเเยกถนนตก (ฝั่งพระราม 3);Before Thanon Tok Intersection (Rama 3 side),13.69603064,100.4978308,1090,1
1091,หลังแยกถนนตก (ฝั่งพระราม 3);After Thanon Tok Intersection (Rama 3 side),13.69666939,100.4977715,1091,1
1092,หมู่บ้านอโนทัย;Anothai Village,13.69151721,100.502695,1092,1
1093,ทรี ออน ธรี;Tree on 3,13.69053517,100.5041193,1093,1
1094,หลังแยกเจริญราษฎร์;After Charoen Rat Junction,13.68974458,100.5106833,1094,1
1095,วาโก้;Wacoal,13.68884889,100.5141915,1095,1
1096,ตรงข้ามริเวอร์ไซด์วิลล่า;Opposite Riverside Villa,13.68785426,100.5169329,1096,1
1097,ไอซีซี;ICC,13.68408118,100.5234304,1097,1
1098,วัดดอกไม้;Wat Dok Mai,13.68145588,100.5269112,1098,1
1099,พระราม 3 ซอย 37;Rama 3 Soi 37,13.68009946,100.5283369,1099,1
1100,พระราม 3 ซอย 39;Rama 3 Soi 39,13.67652124,100.5319847,1100,1
1101,บริษัท นำแสงเอนจิเนียริ่ง;Numsang Engineering Company,13.67544529,100.5333927,1101,1
1102,ตรงข้ามวัดปริวาส;Wat Pariwas (Opposite),13.67456655,100.5350549,1102,1
1103,ตรงข้ามวัดด่าน;Wat Darn (Opposite),13.67329653,100.5402581,1103,1
1104,ตรงข้ามธนาคารกรุงศรีอยุธยา สำนักงานใหญ่;Opposite Krungsri Bank Head Office,13.67641699,100.545318,1104,1
1105,วัดคลองใหม่;Wat Klonh Mai,13.67868187,100.5466948,1105,1
1106,ตรงข้ามวัดคลองภูมิ;Wat khlongphum,13.68111655,100.5474602,1106,1
1107,วัดคู่สร้าง(ถนนประชาอุทิศ);Wat Koosrang,13.57341546,100.5304465,1107,1
1108,หมู่บ้านเคซี คู่สร้างวิลล่า;K.C.Kusang Villa Village,13.57734403,100.5279659,1108,1
1109,บ้านระยอง;Baan Rayong,13.58265846,100.5253085,1109,1
1110,หมู่บ้านสยามนิเวศน์;Siamnivej Village,13.58445445,100.5249009,1110,1
1111,หมู่บ้านประชาสามัคคี;Pracha Samakkee Village,13.59159156,100.521106,1111,1
1112,ซอยเพ้ง;Soi Peng,13.596307,100.519064,1112,1
1113,คอทโก้เมททอลเวอร์คส;Cotco Metal Works,13.60441291,100.5144833,1113,1
1114,หมู่บ้านวรารมย์;Waralom Village,13.60623355,100.5135062,1114,1
1115,บ้านผู้กอง;Baan Phukong,13.61133,100.51077,1115,1
1116,สำนักงานเขตทุ่งครุ;Thung Khru District Office,13.61230579,100.5098751,1116,1
1117,ตรงข้ามหมู่บ้านทัศนีย์นิเวศน์ 2;Opposite Tasanee Niwet 2 Village,13.61410435,100.5100054,1117,1
1118,ตรงข้ามซอยประชาอุทิศ 119/1;Soi Pracha Uthit 119/1 (Opposite),13.61533881,100.5109055,1118,1
1120,หมู่บ้านชวนชื่น ประชาอุทิศ-สุขสวัสดิ์;Chuan Chuen Prachauthit-Suksawat Village,13.6174337,100.5116359,1120,1
1121,โรงเรียนวัดทุ่งครุ;Opposite Wat Thung Khru,13.61950122,100.5114642,1121,1
1123,หลังแยกครุใน;After Khru Nai Junction,13.62284838,100.5098074,1123,1
1124,ตรงข้าม สน.ทุ่งครุ;Opposite Thung Khru Police Station,13.6266831,100.5057592,1124,1
1125,โรงเรียนอนุบาลบ้านโดม;Baan Dome Kindergarten,13.62956266,100.5042252,1125,1
1126,ซอยประชาอุทิศ 89/1;Soi Pracha Uthit 89/1,13.63078052,100.5040364,1126,1
1128,ตรงข้ามโรงเรียนราษฎร์บูรณะฯ;Opposite Ratburana School,13.63369817,100.5028439,1128,1
1129,ตรงข้ามซอยประชาอุทิศ 79;Soi Pracha Uthit 79 (Opposite),13.63436238,100.5026041,1129,1
1130,ซอยประชาอุทิศ 75;Soi Pracha Uthit 75,13.63609003,100.5021243,1130,1
1131,แม็กซ์แวลูประชาอุทิศ;Maxvalu Pracha Uthit,13.63967944,100.5005917,1131,1
1132,ตรงข้ามซอยประชาอุทิศ 69;Opposite Soi Pracha Uthit 69,13.64080234,100.4999783,1132,1
1133,ซอยประชาอุทิศ 54;Soi Pracha Uthit 54,13.64354879,100.4990166,1133,1
1134,ซอยประชาอุทิศ 48;Soi Pracha Uthit 48,13.64632701,100.4974378,1134,1
1135,ซอยประชาอุทิศ 46/1;Soi Pracha Uthit 46/1,13.64655296,100.496915,1135,1
1136,ซอยประชาอุทิศ 42;Soi Pracha Uthit 42,13.64834655,100.4961571,1136,1
1137,มจธ.;King Mongkut's University of Technology Thonburi,13.6507274,100.4965288,1137,1
1138,ซอยประชาอุทิศ 28;Soi Pracha Uthit Soi 28,13.6539183,100.4974496,1138,1
1139,ตรงข้ามโรงเรียนขจรโรจน์วิทยา แผนกอนุบาล;Opposite Kajonrot Wittaya School (Kindergarten),13.65681998,100.4991803,1139,1
1140,ตรงข้ามซอยวัดกลางนา;Opposite Wat Klang Na,13.66126807,100.5019636,1140,1
1141,ซอยประชาอุทิศ 14;Soi Pracha Uthit 14,13.66472421,100.5034579,1141,1
1142,ซอยประชาอุทิศ 8;Soi Pracha Uthit 8,13.66726329,100.5043143,1142,1
1143,วิทยาลัยพณิชยการเชตุพน;Chetupon Commercial College,13.66809756,100.5045959,1143,1
1144,วิทยาลัยพณิชยการเชตุพน;Chetupon Commercial College,13.66884459,100.5048967,1144,1
1145,วิทยาลัยพณิชยการเชตุพน;Chetuphon Commercial College,13.66928021,100.505,1145,1
1146,ตรงข้ามวิทยาลัยพณิชยการเชตุพน;Opposite Chetuphon Commercial College,13.66802671,100.50471,1146,1
1147,ซอยประชาอุทิศ 17;Soi Pracha Uthit 17,13.66637306,100.5042202,1147,1
1148,ตลาดราษฎร์บูรณะเก่า;Rat Burana Old Market,13.66523,100.50383,1148,1
1149,ซอยประชาอุทิศ 19;Soi Pracha Uthit 19,13.66442771,100.5035209,1149,1
1150,ซอยประชาอุทิศ 18;Soi Pracha Uthit 18,13.6626953,100.5026532,1150,1
1151,ซอยวัดกลางนา;Soi Wat Klang Na,13.66089513,100.5019533,1151,1
1152,ซอยประชาอุทิศ 24;Soi Pracha Uthit 24,13.65972,100.50125,1152,1
1153,โรงเรียนขจรโรจน์วิทยา แผนกอนุบาล;Kajonrot Wittaya School (Kindergarten),13.65653166,100.4992342,1153,1
1154,ซอยประชาอุทิศ 39;Soi Pracha Uthit 39,13.65411844,100.4977956,1154,1
1155,ซอยประชาอุทิศ 51;Soi Pracha Uthit 51,13.6469166,100.4966822,1155,1
1156,ซอยประชาอุทิศ 53;Soi Pracha Uthit 53,13.6465996,100.4972447,1156,1
1157,ซอยประชาอุทิศ 61;Soi Pracha Uthit 61,13.64419939,100.4990077,1157,1
1158,ซอยประชาอุทิศ 69;Soi Pracha Uthit 69,13.64226572,100.499672,1158,1
1159,ตรงข้ามประชาอุทิศ 75;Opposite Pracha Uthit 75,13.63614436,100.5019443,1159,1
1160,โรงเรียนราษฎร์บูรณะฯ;Ratburana School (Muhammad Uthit),13.63433156,100.5028512,1160,1
1161,ซอยประชาอุทิศ 85;Soi Pracha Uthit 85,13.63261665,100.5033909,1161,1
1163,ซอยประชาอุทิศ 68;Soi Pracha Uthit 68,13.63192867,100.503442,1163,1
1164,ซอยประชาอุทิศ 91/1;Soi Pracha Uthit 91/1,13.6289985,100.5045244,1164,1
1165,สน.ทุ่งครุ;Thung Khru Police Station,13.62668808,100.505963,1165,1
1166,ก่อนแยกครุใน;Before Khru Nai Junction,13.6233027,100.5096084,1166,1
1167,วัดทุ่งครุ;Wat Thung Khru,13.61914324,100.5113081,1167,1
1169,ตรงข้ามหมู่บ้านทัศนีย์นิเวศน์ 1;Opposite Tasanee Niwet 1 Village,13.61524762,100.5107004,1169,1
1170,หมู่บ้านทัศนีย์นิเวศน์ 2;Tasanee Niwet 2 Village,13.613396,100.5097563,1170,1
1171,บิ๊กซีประชาอุทิศ;Big C Pracha Uthit,13.61185567,100.5104446,1171,1
1172,หมู่บ้านฟ้ากรีนพาร์ค รอยัล ธนบุรีรมย์; Fah Green park Royal Thon Burirom Village,13.60565197,100.5139617,1172,1
1173,"สะพานสุดเขตกรุงเทพมหานครตรงข้ามคอทโก้เมท;Cotco Metal Works Cool Co., Ltd. (Opposite)",13.602936,100.515531,1173,1
1174,ตรงข้ามโรงเรียนคลองนาเกลือน้อย;Na Kluea Noi School,13.59889984,100.51825,1174,1
1175,บ้านเอื้ออาทร ประชาอุทิศ;Baan Eua Athon Pracha Uthit,13.59500267,100.5193235,1175,1
1176,ซอยหัวถนน;Soi Hua Thanon,13.59379332,100.5200461,1176,1
1177,หมู่บ้านสุขเจริญ 2;Suk Charoen 2 Village,13.58746225,100.5239053,1177,1
1178,ตรงข้ามหมู่บ้านสยามนิเวศน์;Opposite Siam Niwet Village,13.58444952,100.5249974,1178,1
1179,"บ้านระยองฝั่งสินนครวิลล์;Baan Rayong, Sinnakhon Ville",13.5826776,100.5254303,1179,1
1180,ตลาดรุ่งเจริญ (ฝั่งสาธุประดิษฐ์);Rung Charoen Market (Sathupradit side),13.69271969,100.5339587,1180,1
1181,ซอยสาธุประดิษฐ์ 45;Soi Pracha Uthit 45,13.6893238,100.533962,1181,1
1182,ซอยสาธุประดิษฐ์ 49;Soi Pracha Uthit 49,13.68624974,100.5327964,1182,1
1183,ตลาดลานทราย;Lan Sai Market,13.68450233,100.5323995,1183,1
1184,ซอยสาธุประดิษฐ์ 57;Soi Sathupradit 57,13.68060621,100.5306238,1184,1
1185,ซอยวัดลุ่มเจริญศรัทธา;Soi Wat Lum Charoen Sattha,13.70865862,100.5157945,1185,1
1186,ซอยบำเพ็ญกุศล;Soi Chan 41,13.70756472,100.5206789,1186,1
1187,ถนนเย็นจิต;Yenjit Road,13.70694397,100.5238311,1187,1
1188,ก่อนแยกจันทน์สะพาน 3;Before Chan Saphan 3 intersection,13.70643221,100.5261514,1188,1
1189,หลังแยกจันทน์-สาธุประดิษฐ์;After Chan-Sathupradit Intersection,13.70583399,100.5294471,1189,1
1190,ซอยจันทน์ 12;Soi Chan 12,13.70562858,100.5343691,1190,1
1191,ศูนย์การค้าวรรัตน์;Wararat Shopping Center,13.70551788,100.5316755,1191,1
1192,โรงแรมฟอรั่มพาร์ค;Forum Park Hotel,13.70649988,100.5363102,1192,1
1193,ซอยพัฒนสิน;Soi Pattanasin,13.71367024,100.5400374,1193,1
1194,ซอยสวนพลู 1;Soi Suan Phlu 1,13.72073128,100.5376618,1194,1
1195,ปากทางออกถนนสวนพลู;Exit Suanplu Road,13.72287965,100.5367837,1195,1
1196,หมู่บ้านสุขสันต์นิเวศน์;Suk San Niwet Village,13.78698124,100.6294272,1196,1
1197,โรงเรียนวัดบึงทองหลาง;Wat Bueng Thong Lang School,13.79483098,100.6275047,1197,1
1198,วัดบึงทองหลาง;Wat Bueng Thong Lang,13.79534513,100.6274063,1198,1
1199,หมู่บ้านโพธิ์แก้ว;Pho Kaew ,13.79792457,100.6304289,1199,1
1200,ตรงข้ามซอยโพธิ์แก้ว 1;Opposite Soi Pho Kaew 1,13.79799943,100.6317788,1200,1
1201,สถาบันรับเลี้ยงเด็กบ้านลูกแก้ว;Baan Lookkeaw Nurseries,13.79681747,100.6273536,1201,1
1202,ตรงข้ามวิทยาลัยศิลปหัตถกรรมกรุงเทพ;BANGKOK ARTS & CRAFTS COLLEGE. (Opposite),13.79287647,100.6280902,1202,1
1203,ชุมชนร่วมกันสร้าง;Chumchon Ruam Kan Sang ,13.78927694,100.6288755,1203,1
1204,ตลาดสวนพลู(ซอยสวนพลู2);Suan Phlu Market (Suan Phlu Soi 2),13.72213616,100.5371522,1204,1
1205,ตรงข้ามตลาดสวนพลู;Opposite Suanplu Market,13.71922462,100.5385873,1205,1
1206,สำนักงานตรวจคนเข้าเมือง;Immigration Bureau,13.71763547,100.5396198,1206,1
1207,ตรงข้ามกองพันทหารสื่อสารที่ 1 รักษาพระองค์;Opposite 1st Communications Battalion,13.71261312,100.5406217,1207,1
1208,หลังแยกเย็นอากาศ;After Yen Akat Junction,13.70962692,100.5413419,1208,1
1209,ตรงข้ามอาคารทีพีไอทาวเวอร์;TPI Building (Opposite),13.70760001,100.5386708,1209,1
1210,นนทรีคอนโดมิเนียม;Nonsi Condominium,13.70646544,100.5366058,1210,1
1211,ซอยจันทน์ 9;Soi Chan 9,13.70556795,100.5347475,1211,1
1212,ตรงข้ามศูนย์การค้าวรรัตน์;Wararat Shopping Center (Opposite),13.70540478,100.5314071,1212,1
1213,ก่อนแยกจันทน์-สาธุประดิษฐ์;Before Chan-Sathupradit Junction,13.70564105,100.5294438,1213,1
1214,หลังแยกจันทน์สะพาน 3;Behind Chan Saphan 3 intersection,13.70636473,100.5260224,1214,1
1215,ตรงข้ามถนนเย็นจิต;Opposite Yenjit Road,13.70669217,100.5244123,1215,1
1216,ซอยวัดไผ่เงิน;Soi Wat Phai Ngoen,13.70742425,100.5207088,1216,1
1217,หลังแยกทางด่วนจันทน์;ฺBehind Chan Expressway Intersection,13.70791801,100.5180735,1217,1
1218,ตรงข้ามอาคารบุญนิรมิต;Opposite Boon Niramit Building,13.6800655,100.5298895,1218,1
1219,ซอยสาธุประดิษฐ์ 52;Soi Sathupradit52,13.68360729,100.532141,1219,1
1220,ซอยสาธุประดิษฐ์ 46;Soi Sathu Pradit 46,13.68635694,100.5326127,1220,1
1221,ตรงข้ามตลาดรุ่งเจริญ (ฝั่งสาธุประดิษฐ์);Opposite Rung Charoen Market (Sathupradit side),13.69333851,100.5335374,1221,1
1222,ตลาดรุ่งเจริญ(ถนนสาธุประดิษฐ์ขาเข้า);Rungcharoen Market,13.69419521,100.5332354,1222,1
1223,อาคารบีพีเอส;Bps Building,13.72131359,100.5844651,1223,1
1224,อาคารสรชัย;Sorachai Building,13.7232131,100.5845268,1224,1
1225,บิ๊กซีเอกมัย;Big C Ekkamai,13.72520424,100.5849013,1225,1
1226,ซอยเอกมัย 1;Soi Ekkamai 1,13.72896463,100.585753,1226,1
1227,ซอยเอกมัย 9;Ekkamai 9,13.7324972,100.5868766,1227,1
1228,ซอยเอกมัย 11;Soi Ekkamai 11,13.73374941,100.5873241,1228,1
1229,ซอยเอกมัย 19;Ekkamai Soi 19,13.73615051,100.5881097,1229,1
1230,อาคารเอสเอสพี 1;Ssp Tower 1,13.73830011,100.5888272,1230,1
1231,วัดภาษี;Wat Pha Si ,13.74066356,100.5895827,1231,1
1232,ตรงข้ามวัดภาษี;Wat Pha Si (Opposite),13.74057948,100.5897884,1232,1
1233,ธนาคารกรุงไทย เอกมัย;Krungthai Bank Ekkamai,13.73861457,100.5890689,1233,1
1234,ซอยเอกมัย 22 ;Ekkamai Soi 22 ,13.7360204,100.5882091,1234,1
1235,ซอยเอกมัย 18;Ekkamai Soi 18,13.73352726,100.5873935,1235,1
1236,ซอยเอกมัย 14;Soi Ekkamai 14,13.73187607,100.5868657,1236,1
1237,แยกทองหล่อ;Thong Lo Intersection,13.730975,100.5865463,1237,1
1238,ซอยเอกมัย 10;Soi Ekkamai 10,13.72925828,100.5859927,1238,1
1239,ซอยเอกมัย 4;Soi Ekkamai 4,13.72479923,100.584829,1239,1
1240,ซอยเอกมัย 2;Soi Ekkamai 2,13.7237197,100.5846912,1240,1
1241,โนเบิล รีวีล;Noble Reveal,13.72242154,100.5846413,1241,1
1242,ตรงข้ามธนาคารไทยพาณิชย์สาขาฮอไรซอนเอกมัย;SCB- Horizon Ekkamai (Opposite),13.7212762,100.5845523,1242,1
1243,ตรงข้ามสหกรณ์กรุงเทพเอกมัย;Krungdeb Co-Operative Store - Ekkamai (Opposite),13.72065953,100.5845562,1243,1
1244,หมู่บ้านประชานิเวศน์ 2(ซอยสามัคคี 63);Pracha Niwet 2 Village (Soi Samakki 63),13.88100195,100.5404563,1244,1
1245,ตรงข้ามประชานิเวศน์ 2 ระยะ 3;Opposite Prachaniwet 2 Raya 3,13.88045551,100.5437221,1245,1
1246,ตรงข้ามโรงเรียนประชาอุปถัมภ์;Opposite Rong Rean Pracha Uppatham,13.87928757,100.5474571,1246,1
1247,ตรงข้ามประชานิเวศน์ 4;Opposite Prachaniwet 4,13.87762128,100.549262,1247,1
1248,ซอยเคหะท่าทราย;Soi Kheha Tha Sai,13.87259418,100.5490658,1248,1
1249,ม.ธุรกิจบัณฑิตย์;Bus stop,13.87142808,100.548792,1249,1
1250,หมู่บ้านการ์เด้นซิตี้ลากูน;Muban Garden City Lagoon,13.86743703,100.5478688,1250,1
1251,หมู่บ้านราชพฤกษ์;Ratchaphruek Village,13.86515415,100.5473436,1251,1
1252,หมู่บ้านภัสสร 11;Passorn Village 11,13.86241573,100.5466886,1252,1
1253,ตรงข้ามซอยประชาชื่นนนท์ 2;Opposite Soi Prachchuen-Nont 2,13.85959178,100.5460156,1253,1
1254,แยกพงษ์เพชร (ขาออก);Phong Phet Intersection (outbound),13.85667354,100.5450313,1254,1
1255,ซอยประชาชื่นนนทบุรี 2;Soi Prachachuennonthaburi 2,13.85970366,100.5458848,1255,1
1256,ซอยประชาชื่นนนทบุรี 4;Soi Prachachuennonthaburi 4,13.86214818,100.5464458,1256,1
1257,ซอยประชาชื่นนนทบุรี 5;Soi Prachachuennonthaburi 5,13.86484257,100.547093,1257,1
1258,ประชานิเวศน์ 4;Prachaniwet 4,13.87747935,100.5492287,1258,1
1259,โรงเรียนประชาอุปถัมภ์;Pracha Uppathum School,13.8787331,100.5476394,1259,1
1260,หมู่บ้านศิวะนคร;Siwa Nakhon Village,13.57909785,100.6255772,1260,1
1261,วิทยาลัยเทคโนโลยีทักษิณาบริหารธุรกิจ;Thaksina Business Technological College,13.81261465,100.6915731,1261,1
1262,ตรงข้าม รพ.อินทรารัตน์;Opposite Indrarat Hospital,13.82947948,100.6717093,1262,1
1263,หมู่บ้านธนิทร;Thaninthon Village,13.93970834,100.612274,1263,1
1264,ตรงข้ามโรงเรียนราชินีบน;Opposite Rajinibon School,13.7878785,100.5136246,1264,1
1265,ตลาดรวมยาง;Ruam Yang Market,13.76886185,100.5030758,1265,1
1266,ตรงข้ามสำนักงานเขตพระนคร;Phranakhon District Office (Opposite),13.76342694,100.4990866,1266,1
1267,วัดใหม่อมตรส;Wat Mai Amataros,13.76506507,100.5000199,1267,1
1268,ถนนข้าวสาร;Khaosan Road,13.7606848,100.4967541,1268,1
1269,ธนาคารแห่งประเทศไทย;The Bank of Thailand,13.76817704,100.5021987,1269,1
1270,หมู่บ้านช.รุ่งเรือง 4;Chor Rungruang 4 Village,13.84383029,100.5028601,1270,1
1271,ซอยกรุงเทพ-นนทบุรี 48;Soi Krungthep-Nonthaburi 48,13.82724046,100.5298902,1271,1
1272,ซอยกรุงเทพ-นนทบุรี 44;Soi Krungthep-Nonthaburi 44,13.82573076,100.531696,1272,1
1273,"โรงเรียนพิริยะโยธิน;D - Square, Krua Khun Su, Biriyayothin Kindergarten School",13.82295052,100.5329359,1273,1
1274,ตรงข้ามตลาดบางซ่อน;Opposite Bang Son Market,13.82130786,100.5327598,1274,1
1275,ตรงข้ามรีเจ้นท์โฮม บางซ่อน;Opposite Regent Home Bangson,13.81961996,100.5325727,1275,1
1276,ไปรษณีย์บางซื่อ;Bang Sue Post Office,13.81692568,100.5322066,1276,1
1277,ตรงข้าม สน.เตาปูน;Opposite Tao Poon Police Station,13.81473517,100.5319363,1277,1
1278,ซอยกรุงเทพ-นนทบุรี 20;Soi Krungthep-Nonthaburi 20,13.81312884,100.5317659,1278,1
1279,ซอยกรุงเทพ-นนทบุรี 12;Soi Krungthep-Nonthaburi 12,13.81041485,100.531411,1279,1
1280,ก่อนแยกเตาปูน;Before Tao Poon Junction,13.80793864,100.5311201,1280,1
1281,ซอยสะพานขวา;Soi Saphan Khwang,13.80633001,100.5287307,1281,1
1282,เดอะทรี อินเตอร์เชนจ์ คอนโด;The Tree Interchange,13.80634001,100.5252879,1282,1
1283,เกตเวย์บางซื่อ;Gateway Bangsue,13.80629813,100.5225919,1283,1
1284,รพ.บางโพ;Bang Pho Hospital,13.80650129,100.5230053,1284,1
1285,ตรงข้ามเดอะทรี อินเตอร์เชนจ์ คอนโด;Opposite The Tree Interchange Condo,13.8065208,100.5255716,1285,1
1286,ซอยเยาวภา;Soi Yaowapha,13.8064644,100.5282357,1286,1
1287,หลังแยกเตาปูน;After Tao Poon Junction,13.8080404,100.5309088,1287,1
1288,ซอยประชานฤมิตร;Soi Pracha Naruemit,13.81061189,100.531223,1288,1
1289,ซอยกรุงเทพ-นนทบุรี 13;Soi Krungthep - Nonthaburi 13,13.81259097,100.5314522,1289,1
1290,สน.เตาปูน;Taopoon Police Station,13.81466577,100.5316914,1290,1
1291,วัดเชิงหวาย;Wat Choeng Wai,13.81734058,100.5320485,1291,1
1292,รีเจ้นท์โฮม บางซ่อน;Regent Home Bangson,13.81980135,100.5322831,1292,1
1293,ตลาดบางซ่อน;Bangson Market,13.82098884,100.5324484,1293,1
1294,ตรงข้ามโรงเรียนพิริยะโยธิน;Opposite Piriyayothin School,13.8234357,100.5326632,1294,1
1295,ซอยกรุงเทพ-นนทบุรี 39;Soi Krungthep-Nonthaburi 39,13.82646117,100.5304453,1295,1
1296,ม.ศิลปากร;Silpakorn University,13.75277789,100.4895706,1296,1
1297,ตรงข้ามท่าเตียน;Opposite Tha Tian,13.74719491,100.4905515,1297,1
1298,ประชาราษฎร์สาย 1 ซอย 15;Pracharat Sai 1 Soi 15,13.80711277,100.5215401,1298,1
1299,หลังถนนเลียบคลองเปรมประชากร;Behind Prem Prachakon Canal Road,13.98520827,100.5980691,1299,1
1300,โรงเรียนเมืองเอกศึกษา;Muang Aek Sueksa School,13.97964253,100.5931896,1300,1
1301,ตรงข้ามซอยบ่อตะพบ;Opposite Soi Bo Taphap,13.9746085,100.5772861,1301,1
1302,ตรงข้ามซอยวัดชินวราราม;Soi Wat Chinwararam (Opposite),13.96517021,100.5306063,1302,1
1303,ถนนปทุมธานี-สายใน;Pathumthani Road.,13.96467455,100.5278412,1303,1
1304,ตรงข้ามโรงเรียนพิทักษ์นครินทร์;Pithak Nakkarin School (Opposite),13.96052131,100.5177476,1304,1
1305,บางคูวัด;Bฺang Koo Wat,13.95872737,100.5162539,1305,1
1306,ตรงข้ามหมู่บ้านเมืองประชา/หมู่บ้านกฤษติญา;Opposite Golf Course Angle,13.9585628,100.5192828,1306,1
1307,ตรงข้ามวัดบางนางบุญ;Wat Bang Nang Boon (Opposite),13.95666476,100.5261694,1307,1
1308,ตรงข้ามซอยใจเอื้อ;Opposite Soi Chai Uea,13.95196555,100.530923,1308,1
1309,ตรงข้ามวัดช่องลมนนทบุรี;Wat Chong Lom Nonthaburi (Opposite),13.94567274,100.5372543,1309,1
1310,หมู่บ้านมิตรประชา;Mith Pracha Village,13.93692522,100.5391098,1310,1
1311,ถนนบอนด์สตรีท;Muang Thong Thani Village,13.92953222,100.5303633,1311,1
1312,ซอยติวานนท์-ปากเกร็ด 34;S0i Tiwanon - Pakkred 34,13.92783798,100.5281122,1312,1
1313,ตรงข้ามโรงเรียนอัมพรไพศาล;Opposite Ampornpaisan School,13.9248276,100.5246255,1313,1
1314,ตรงข้ามหมู่บ้านลานทอง;Lan Thong Village,13.91839867,100.5168669,1314,1
1315,ซอยหมู่บ้านสหกรณ์ฯ 3;Soi Mu Ban Sahakorn 3,13.91596842,100.5139945,1315,1
1316,โรงเรียนสวนกุหลาบวิทยาลัย นนทบุรี;Suankulard Nonthaburi School,13.91137187,100.5084149,1316,1
1317,เคหะนนทบุรี (ฝั่งติวานนท์);Housing Nonthaburi (Tiwanon Side),13.91018085,100.5065976,1317,1
1318,ตรงข้ามโรงเรียนสวนกุหลาบวิทยาลัย นนทบุรี;Opposite Suankularb Wittayalai Nonthaburi School,13.9115331,100.5082409,1318,1
1319,ตรงข้ามซอยหมู่บ้านสหกรณ์ฯ 3;Opposite Soi Mu Ban Sahakorn 3,13.91618369,100.5138402,1319,1
1320,หมู่บ้านลานทอง;Lan Thong Village,13.91919156,100.5174015,1320,1
1321,โรงเรียนอัมพรไพศาล;Amphonpaisarn School,13.92505849,100.5245137,1321,1
1322,การไฟฟ้านครหลวง บางพูด;Metropolitan Electricity Authority Bang Phut,13.92796248,100.527905,1322,1
1323,ตรงข้ามถนนบอนด์สตรีท;Opposite Muang Thong Thani Village,13.93021943,100.5306629,1323,1
1324,ตรงข้ามหมู่บ้านมิตรประชา;Opposite Mitpracha Village,13.93708254,100.5388744,1324,1
1325,ชุมชนสายบัว;Sai Bua Community,13.94323445,100.5391744,1325,1
1326,ซอยใจเอื้อ;Soi Chai Uea,13.95177985,100.5306321,1326,1
1327,วัดบางนางบุญ (จุดที่ 2);Wat Bangnang Bun (Stop 2),13.9570905,100.5252831,1327,1
1328,หมู่บ้านเมืองประชา / หมู่บ้านกฤติยา;Angle Golf Course,13.95820685,100.5194173,1328,1
1329,โรงเรียนพิทักษ์นครินทร์;Pithak Nakkarin School,13.96102704,100.517584,1329,1
1330,โรงเรียนโกลบอลอินเดียนนานาชาติ;Golbon India International School,13.96510921,100.527639,1330,1
1331,ซอยวัดชินวราราม;Soi Wat Chinwararam,13.9656496,100.5306599,1331,1
1332,ซอยบ่อตะพาบ;Soi bor Takhab,13.97490254,100.5770472,1332,1
1333,ก่อนถนนเลียบคลองเปรมประชากร;Before Prem Prachakon Canal Road,13.9856482,100.5980672,1333,1
1334,ตรงข้ามวัดเทพลีลา;Opposite Wat Thepleela ,13.75891882,100.6138446,1334,1
1335,ชุมชนรุ่งมณีพัฒนา;Rungmanee Pattana Community,13.76056131,100.6112735,1335,1
1336,วิทยาลัยพณิชยการอินทราชัย;Indrachai Commercial College,13.76271322,100.6078537,1336,1
1337,วิศวกรรมสถานแห่งประเทศไทย;Council of Engineers,13.76397888,100.6063494,1337,1
1338,โรงเรียนศิริกุลพิทยา;Sirikunpittaya School,13.7655066,100.6045298,1338,1
1339,หลังแยกศรีวรา;After Srivara Intersection,13.76663239,100.6028854,1339,1
1340,หลังแยกประชาอุทิศ-ประดิษฐ์มนูธรรม (ฝั่งประชาอุทิศ);After Pracha Uthit-Pradit Manutham Intersection (Pracha Uthit side),13.76727142,100.6009364,1340,1
1341,ตรงข้ามซอยสหการประมูล;Opposite Soi Sahakarnpramoon,13.76834429,100.5950703,1341,1
1342,ตรงข้ามซอยสุพรรณนิมิตร;Opposite Soi Supanimit,13.76919123,100.5906126,1342,1
1343,ก่อนแยกเหม่งจ๋าย;Before Meng Jai intersection,13.76935899,100.5877519,1343,1
1344,ไปรษณีย์ห้วยขวาง (ถนนเทียมร่วมมิตรขาเข้า);Post Office Huay Khwang,13.76817357,100.5864194,1344,1
1345,ไปรษณีย์ห้วยขวาง (ถนนเทียมร่วมมิตรขาออก);Post Office Huay Khwang,13.76839759,100.5862607,1345,1
1346,หลังแยกเหม่งจ๋าย;After Meng Jai intersection,13.76947,100.5886494,1346,1
1347, ซอยศุภนิมิต;Soi Supanimit,13.7693037,100.5904519,1347,1
1348,สถานทูตลาว;Embassy of Laos,13.76900603,100.5933361,1348,1
1349,ซอยสหการประมูล;Soi Sahakarnpramoon,13.76831409,100.5958571,1349,1
1350,โรงแรมเอสซีปาร์ค;SC Park Hotel,13.76900953,100.6040589,1350,1
1351,ก่อนแยกศรีวรา;Before Sriwara intersection,13.76660913,100.6032359,1351,1
1352,ตรงข้ามโรงเรียนศิริกุลพิทยา;Opposite Sirikunpittaya School,13.76532609,100.6049484,1352,1
1353,ตรงข้ามสำนักงานเขตวังทองหลาง;Opposite Wang Thong Lang District Office,13.76426018,100.6062343,1353,1
1354,สมาคมการจัดการธุรกิจแห่งประเทศไทย;Thailand Management Association,13.76202556,100.6089366,1354,1
1355,ชุมชนทรัพย์สินเก่า;Chum Chon Sap Sin Gao,13.76046028,100.6118854,1355,1
1356,ตรงข้ามวัดแจงร้อน;Opposite Wat Chaeng Ron,13.67362447,100.5179635,1356,1
1357,ตรงข้ามแชปเตอร์วัน ราษฎร์บูรณะ;Opposite Chapter One Ratburana,13.6752688,100.5169983,1357,1
1358,ซอยราษฎร์บูรณะ 36;Soi Ratburana 36,13.67671417,100.5150344,1358,1
1359,"ตรงข้ามธนาคารกสิกรไทย ราษฎร์บูรณะ;Opposite Kasikorn Bank, Rat Burana",13.67827361,100.5124339,1359,1
1360,ซอยราษฎร์บูรณะ 26;Rat Burana 26,13.68014137,100.5091151,1360,1
1361,ตรงข้ามสำนักงานเขตราษฎร์บูรณะ;Opposite Rat Burana District Office,13.68120347,100.5067642,1361,1
1362,คลังสินค้าราษฎร์บูรณะ;Ratburana Warehouse,13.6814021,100.5069551,1362,1
1363,ซอยราษฎร์บูรณะ 25;Soi Ratburana 25,13.67954395,100.5106731,1363,1
1364,"ธนาคารกสิกรไทย ราษฎร์บูรณะ;Kasikorn Bank, Rat Burana",13.67843057,100.5126228,1364,1
1365,สวนสะพานพระราม 9 (ฝั่งราษฎร์บูรณะ);Rama IX Bridge Park (Rat Burana side),13.6774874,100.5142716,1365,1
1366,ตลาดไท (ตลาดสด);Talaad Thai (Fresh Market),14.08171718,100.621364,1366,1
1367,ตรงข้าม รพ.ธรรมศาสตร์เฉลิมพระเกียรติ;Opposite Thammasat University Hospital,14.07526165,100.618125,1367,1
1368,ตลาดบางขัน;Bang Khan Market,14.06659173,100.617771,1368,1
1369,ตรงข้ามหมู่บ้านกฤษดาแกรนด์พาร์ค;Opposite Krisada Grand Park Village,14.06021633,100.617516,1369,1
1370,ซอยคลองหลวง 64;Soi Khlong Luang 64,14.05619376,100.6172951,1370,1
